{
"type": "FeatureCollection",
"name": "ihe_subeler",
"crs": { "type": "name", "properties": { "name": "urn:ogc:def:crs:OGC:1.3:CRS84" } },
"features": [
{ "type": "Feature", "properties": { "OBJECTID": 6576, "ILCE": "PENDİK", "MAHALLE": "ESENYALI", "NAME": "PİRİ REİS BÜFE", "TOPLAM_YAP": "345", "TOPLAM_ISY": 93.0, "TOPLAM_KON": 918.0, "TOPLAM_KIS": 5723.0 }, "geometry": { "type": "Point", "coordinates": [ 29.29347199977212, 40.858394000303527 ] } },
{ "type": "Feature", "properties": { "OBJECTID": 6577, "ILCE": "PENDİK", "MAHALLE": "YENİ", "NAME": "PLEVNE BÜFE", "TOPLAM_YAP": "300", "TOPLAM_ISY": 219.0, "TOPLAM_KON": 1280.0, "TOPLAM_KIS": 5945.0 }, "geometry": { "type": "Point", "coordinates": [ 29.230752000144598, 40.883864000322752 ] } },
{ "type": "Feature", "properties": { "OBJECTID": 6578, "ILCE": "KARTAL", "MAHALLE": "KARLIKTEPE", "NAME": "KARTAL MEYDAN BÜFE", "TOPLAM_YAP": "288", "TOPLAM_ISY": 806.0, "TOPLAM_KON": 1639.0, "TOPLAM_KIS": 4145.0 }, "geometry": { "type": "Point", "coordinates": [ 29.189404999971845, 40.889759000151734 ] } },
{ "type": "Feature", "properties": { "OBJECTID": 6579, "ILCE": "ÜSKÜDAR", "MAHALLE": "SULTANTEPE", "NAME": "ÜSKÜDAR MEYDAN BÜFE", "TOPLAM_YAP": "228", "TOPLAM_ISY": 14.0, "TOPLAM_KON": 0.0, "TOPLAM_KIS": 2349.0 }, "geometry": { "type": "Point", "coordinates": [ 29.015602999907433, 41.026438999588613 ] } },
{ "type": "Feature", "properties": { "OBJECTID": 6580, "ILCE": "ÜSKÜDAR", "MAHALLE": "MURAT REİS", "NAME": "EĞİTİM BÜFE", "TOPLAM_YAP": "493", "TOPLAM_ISY": 1.0, "TOPLAM_KON": 0.0, "TOPLAM_KIS": 5773.0 }, "geometry": { "type": "Point", "coordinates": [ 29.033873000343725, 41.023705000377127 ] } },
{ "type": "Feature", "properties": { "OBJECTID": 6581, "ILCE": "KADIKÖY", "MAHALLE": "KOZYATAĞI", "NAME": "SUADİYE BÜFE", "TOPLAM_YAP": "333", "TOPLAM_ISY": 462.0, "TOPLAM_KON": 3336.0, "TOPLAM_KIS": 9043.0 }, "geometry": { "type": "Point", "coordinates": [ 29.089638999649388, 40.963450000376596 ] } },
{ "type": "Feature", "properties": { "OBJECTID": 6582, "ILCE": "KADIKÖY", "MAHALLE": "MERDİVENKÖY", "NAME": "GÖKAY BÜFE", "TOPLAM_YAP": "201", "TOPLAM_ISY": 351.0, "TOPLAM_KON": 2489.0, "TOPLAM_KIS": 6972.0 }, "geometry": { "type": "Point", "coordinates": [ 29.07057900044483, 40.981284000364226 ] } },
{ "type": "Feature", "properties": { "OBJECTID": 6583, "ILCE": "ATAŞEHİR", "MAHALLE": "MEVLANA", "NAME": "TÜRKİŞ MERKEZ BÜFE", "TOPLAM_YAP": "211", "TOPLAM_ISY": 215.0, "TOPLAM_KON": 2848.0, "TOPLAM_KIS": 7914.0 }, "geometry": { "type": "Point", "coordinates": [ 29.155918000520984, 40.98825999976458 ] } },
{ "type": "Feature", "properties": { "OBJECTID": 6584, "ILCE": "ATAŞEHİR", "MAHALLE": "KAYIŞDAĞI", "NAME": "ATAŞEHİR YEDİTEPE BÜFE", "TOPLAM_YAP": "369", "TOPLAM_ISY": 79.0, "TOPLAM_KON": 1230.0, "TOPLAM_KIS": 4374.0 }, "geometry": { "type": "Point", "coordinates": [ 29.151101999554552, 40.976741999849615 ] } },
{ "type": "Feature", "properties": { "OBJECTID": 6585, "ILCE": "MALTEPE", "MAHALLE": "KÜÇÜKYALI", "NAME": "KÜÇÜKYALI BÜFE", "TOPLAM_YAP": "294", "TOPLAM_ISY": 642.0, "TOPLAM_KON": 2837.0, "TOPLAM_KIS": 8583.0 }, "geometry": { "type": "Point", "coordinates": [ 29.111294999873287, 40.946627999656563 ] } },
{ "type": "Feature", "properties": { "OBJECTID": 6586, "ILCE": "KADIKÖY", "MAHALLE": "BOSTANCI", "NAME": "BOSTANCI İSKELE BÜFE", "TOPLAM_YAP": "58", "TOPLAM_ISY": 85.0, "TOPLAM_KON": 480.0, "TOPLAM_KIS": 981.0 }, "geometry": { "type": "Point", "coordinates": [ 29.093374999786789, 40.952597000162221 ] } },
{ "type": "Feature", "properties": { "OBJECTID": 6587, "ILCE": "ATAŞEHİR", "MAHALLE": "İNÖNÜ", "NAME": "KAYIŞDAĞI KAR BÜFE", "TOPLAM_YAP": "274", "TOPLAM_ISY": 248.0, "TOPLAM_KON": 1485.0, "TOPLAM_KIS": 4587.0 }, "geometry": { "type": "Point", "coordinates": [ 29.142004999893306, 40.97813000002246 ] } },
{ "type": "Feature", "properties": { "OBJECTID": 6588, "ILCE": "MALTEPE", "MAHALLE": "ALTINTEPE", "NAME": "FİDANLIK BÜFE", "TOPLAM_YAP": "313", "TOPLAM_ISY": 396.0, "TOPLAM_KON": 2984.0, "TOPLAM_KIS": 8877.0 }, "geometry": { "type": "Point", "coordinates": [ 29.100699999566295, 40.954526999671955 ] } },
{ "type": "Feature", "properties": { "OBJECTID": 6589, "ILCE": "ATAŞEHİR", "MAHALLE": "İÇERENKÖY", "NAME": "KÖŞEM BÜFE", "TOPLAM_YAP": "427", "TOPLAM_ISY": 364.0, "TOPLAM_KON": 3630.0, "TOPLAM_KIS": 10253.0 }, "geometry": { "type": "Point", "coordinates": [ 29.117399999528242, 40.9688220003762 ] } },
{ "type": "Feature", "properties": { "OBJECTID": 6590, "ILCE": "ÜSKÜDAR", "MAHALLE": "YAVUZTÜRK", "NAME": "TARİH BÜFE", "TOPLAM_YAP": "220", "TOPLAM_ISY": 0.0, "TOPLAM_KON": 0.0, "TOPLAM_KIS": 3951.0 }, "geometry": { "type": "Point", "coordinates": [ 29.084550999935324, 41.049719999926076 ] } },
{ "type": "Feature", "properties": { "OBJECTID": 6591, "ILCE": "ÜSKÜDAR", "MAHALLE": "YAVUZTÜRK", "NAME": "YAVUZTÜRK BÜFE", "TOPLAM_YAP": "422", "TOPLAM_ISY": 0.0, "TOPLAM_KON": 0.0, "TOPLAM_KIS": 5232.0 }, "geometry": { "type": "Point", "coordinates": [ 29.085853999561234, 41.041094000371686 ] } },
{ "type": "Feature", "properties": { "OBJECTID": 6592, "ILCE": "PENDİK", "MAHALLE": "SAPANBAĞLARI", "NAME": "BOSNA PARKI BÜFE", "TOPLAM_YAP": "563", "TOPLAM_ISY": 296.0, "TOPLAM_KON": 1790.0, "TOPLAM_KIS": 8215.0 }, "geometry": { "type": "Point", "coordinates": [ 29.222019999627143, 40.887805000104002 ] } },
{ "type": "Feature", "properties": { "OBJECTID": 6593, "ILCE": "PENDİK", "MAHALLE": "ORHANGAZİ", "NAME": "BAKİ BÜFE", "TOPLAM_YAP": "834", "TOPLAM_ISY": 305.0, "TOPLAM_KON": 2382.0, "TOPLAM_KIS": 13332.0 }, "geometry": { "type": "Point", "coordinates": [ 29.290985999541082, 40.868866999700693 ] } },
{ "type": "Feature", "properties": { "OBJECTID": 6594, "ILCE": "TUZLA", "MAHALLE": "MİMARSİNAN", "NAME": "ŞİFA KİPTAŞ 2 BÜFE", "TOPLAM_YAP": "251", "TOPLAM_ISY": 91.0, "TOPLAM_KON": 1839.0, "TOPLAM_KIS": 8155.0 }, "geometry": { "type": "Point", "coordinates": [ 29.36425400006933, 40.840153000045106 ] } },
{ "type": "Feature", "properties": { "OBJECTID": 6595, "ILCE": "TUZLA", "MAHALLE": "AYDINLI", "NAME": "AYDINLIKÖY TOKİ BÜFE", "TOPLAM_YAP": "114", "TOPLAM_ISY": 14.0, "TOPLAM_KON": 574.0, "TOPLAM_KIS": 4390.0 }, "geometry": { "type": "Point", "coordinates": [ 29.340528000449581, 40.860347999952154 ] } },
{ "type": "Feature", "properties": { "OBJECTID": 6596, "ILCE": "MALTEPE", "MAHALLE": "ZÜMRÜTEVLER", "NAME": "ZÜMRÜTEVLER BÜFE", "TOPLAM_YAP": "423", "TOPLAM_ISY": 277.0, "TOPLAM_KON": 2245.0, "TOPLAM_KIS": 12135.0 }, "geometry": { "type": "Point", "coordinates": [ 29.150453000151277, 40.942655000234211 ] } },
{ "type": "Feature", "properties": { "OBJECTID": 6597, "ILCE": "KARTAL", "MAHALLE": "HÜRRİYET", "NAME": "HÜRRİYET MERKEZ BÜFE", "TOPLAM_YAP": "458", "TOPLAM_ISY": 340.0, "TOPLAM_KON": 2045.0, "TOPLAM_KIS": 7737.0 }, "geometry": { "type": "Point", "coordinates": [ 29.226990000019448, 40.900387000059339 ] } },
{ "type": "Feature", "properties": { "OBJECTID": 6598, "ILCE": "PENDİK", "MAHALLE": "KAYNARCA", "NAME": "ALT KAYNARCA BÜFE", "TOPLAM_YAP": "404", "TOPLAM_ISY": 830.0, "TOPLAM_KON": 1988.0, "TOPLAM_KIS": 7593.0 }, "geometry": { "type": "Point", "coordinates": [ 29.262378000515842, 40.877065000154566 ] } },
{ "type": "Feature", "properties": { "OBJECTID": 6599, "ILCE": "ÜSKÜDAR", "MAHALLE": "ZEYNEP KAMİL", "NAME": "ÇİÇEKÇİ BÜFE", "TOPLAM_YAP": "458", "TOPLAM_ISY": 0.0, "TOPLAM_KON": 0.0, "TOPLAM_KIS": 8253.0 }, "geometry": { "type": "Point", "coordinates": [ 29.020748000165938, 41.013225999643431 ] } },
{ "type": "Feature", "properties": { "OBJECTID": 6600, "ILCE": "ÜSKÜDAR", "MAHALLE": "AHMEDİYE", "NAME": "CUMA PAZARI BÜFE", "TOPLAM_YAP": "529", "TOPLAM_ISY": 7.0, "TOPLAM_KON": 0.0, "TOPLAM_KIS": 8765.0 }, "geometry": { "type": "Point", "coordinates": [ 29.018449999772823, 41.019539000026761 ] } },
{ "type": "Feature", "properties": { "OBJECTID": 6601, "ILCE": "ÜSKÜDAR", "MAHALLE": "BAHÇELİEVLER", "NAME": "BAHÇELİEVLER BÜFE", "TOPLAM_YAP": "305", "TOPLAM_ISY": 0.0, "TOPLAM_KON": 0.0, "TOPLAM_KIS": 5491.0 }, "geometry": { "type": "Point", "coordinates": [ 29.07420699966471, 41.057338999895357 ] } },
{ "type": "Feature", "properties": { "OBJECTID": 6602, "ILCE": "KADIKÖY", "MAHALLE": "KOZYATAĞI", "NAME": "KOZYATAĞI BÜFE", "TOPLAM_YAP": "159", "TOPLAM_ISY": 253.0, "TOPLAM_KON": 2663.0, "TOPLAM_KIS": 7198.0 }, "geometry": { "type": "Point", "coordinates": [ 29.097955999582361, 40.96854500040056 ] } },
{ "type": "Feature", "properties": { "OBJECTID": 6603, "ILCE": "KADIKÖY", "MAHALLE": "KOZYATAĞI", "NAME": "KOZYATAĞI ŞAKACI BÜFE", "TOPLAM_YAP": "176", "TOPLAM_ISY": 281.0, "TOPLAM_KON": 3320.0, "TOPLAM_KIS": 8949.0 }, "geometry": { "type": "Point", "coordinates": [ 29.095388999739132, 40.972297999795451 ] } },
{ "type": "Feature", "properties": { "OBJECTID": 6604, "ILCE": "KADIKÖY", "MAHALLE": "EĞİTİM", "NAME": "ZİVERBEY BÜFE", "TOPLAM_YAP": "257", "TOPLAM_ISY": 287.0, "TOPLAM_KON": 3039.0, "TOPLAM_KIS": 8638.0 }, "geometry": { "type": "Point", "coordinates": [ 29.043073000577991, 40.988656000199285 ] } },
{ "type": "Feature", "properties": { "OBJECTID": 6605, "ILCE": "KADIKÖY", "MAHALLE": "SAHRAYICEDİD", "NAME": "SAHRAYI CEDİT BÜFE", "TOPLAM_YAP": "185", "TOPLAM_ISY": 514.0, "TOPLAM_KON": 2648.0, "TOPLAM_KIS": 6590.0 }, "geometry": { "type": "Point", "coordinates": [ 29.077246000232744, 40.9802230001673 ] } },
{ "type": "Feature", "properties": { "OBJECTID": 6606, "ILCE": "ATAŞEHİR", "MAHALLE": "İÇERENKÖY", "NAME": "BOSTANCI KÖPRÜ BÜFE", "TOPLAM_YAP": "18", "TOPLAM_ISY": 53.0, "TOPLAM_KON": 183.0, "TOPLAM_KIS": 405.0 }, "geometry": { "type": "Point", "coordinates": [ 29.106094000245001, 40.965428000045314 ] } },
{ "type": "Feature", "properties": { "OBJECTID": 6607, "ILCE": "BAŞAKŞEHİR", "MAHALLE": "KAYABAŞI", "NAME": "KAYAŞEHİR 2 BÜFE", "TOPLAM_YAP": "56", "TOPLAM_ISY": 0.0, "TOPLAM_KON": 2728.0, "TOPLAM_KIS": 9679.0 }, "geometry": { "type": "Point", "coordinates": [ 28.754028000324439, 41.105242000375434 ] } },
{ "type": "Feature", "properties": { "OBJECTID": 6608, "ILCE": "KÜÇÜKÇEKMECE", "MAHALLE": "ATAKENT", "NAME": "ATAKENT 1 BÜFE", "TOPLAM_YAP": "57", "TOPLAM_ISY": 0.0, "TOPLAM_KON": 1116.0, "TOPLAM_KIS": 4461.0 }, "geometry": { "type": "Point", "coordinates": [ 28.787858999441461, 41.05240299996958 ] } },
{ "type": "Feature", "properties": { "OBJECTID": 6609, "ILCE": "BAŞAKŞEHİR", "MAHALLE": "GÜVERCİNTEPE", "NAME": "BAYRAMTEPE BÜFE", "TOPLAM_YAP": "357", "TOPLAM_ISY": 233.0, "TOPLAM_KON": 746.0, "TOPLAM_KIS": 7542.0 }, "geometry": { "type": "Point", "coordinates": [ 28.750552999444775, 41.073655999568885 ] } },
{ "type": "Feature", "properties": { "OBJECTID": 6610, "ILCE": "KÜÇÜKÇEKMECE", "MAHALLE": "HALKALI MERKEZ", "NAME": "HALKALI MERKEZ BÜFE", "TOPLAM_YAP": "107", "TOPLAM_ISY": 87.0, "TOPLAM_KON": 781.0, "TOPLAM_KIS": 3038.0 }, "geometry": { "type": "Point", "coordinates": [ 28.790589999940767, 41.034775000259359 ] } },
{ "type": "Feature", "properties": { "OBJECTID": 6611, "ILCE": "KÜÇÜKÇEKMECE", "MAHALLE": "MEHMET AKİF", "NAME": "MEHMET AKİF BÜFE", "TOPLAM_YAP": "1193", "TOPLAM_ISY": 952.0, "TOPLAM_KON": 6092.0, "TOPLAM_KIS": 27883.0 }, "geometry": { "type": "Point", "coordinates": [ 28.804605999782439, 41.057116999717749 ] } },
{ "type": "Feature", "properties": { "OBJECTID": 6612, "ILCE": "PENDİK", "MAHALLE": "ÇAMÇEŞME", "NAME": "PENDİK KAYMAKAMLIK BÜFE", "TOPLAM_YAP": "597", "TOPLAM_ISY": 623.0, "TOPLAM_KON": 3537.0, "TOPLAM_KIS": 13235.0 }, "geometry": { "type": "Point", "coordinates": [ 29.273328000090604, 40.873037999846893 ] } },
{ "type": "Feature", "properties": { "OBJECTID": 6613, "ILCE": "ÜMRANİYE", "MAHALLE": "TANTAVİ", "NAME": "MAVERAPARK BÜFE", "TOPLAM_YAP": "401", "TOPLAM_ISY": 50.0, "TOPLAM_KON": 1105.0, "TOPLAM_KIS": 8049.0 }, "geometry": { "type": "Point", "coordinates": [ 29.086900999981712, 41.031318999592429 ] } },
{ "type": "Feature", "properties": { "OBJECTID": 6614, "ILCE": "BEYKOZ", "MAHALLE": "SOĞUKSU", "NAME": "BEYKOZ SOĞUKSU BÜFE", "TOPLAM_YAP": "574", "TOPLAM_ISY": 143.0, "TOPLAM_KON": 1148.0, "TOPLAM_KIS": 4160.0 }, "geometry": { "type": "Point", "coordinates": [ 29.109865000112485, 41.114137999990234 ] } },
{ "type": "Feature", "properties": { "OBJECTID": 6615, "ILCE": "BEYKOZ", "MAHALLE": "ORTAÇEŞME", "NAME": "ORTAÇEŞME BÜFE", "TOPLAM_YAP": "456", "TOPLAM_ISY": 142.0, "TOPLAM_KON": 950.0, "TOPLAM_KIS": 2959.0 }, "geometry": { "type": "Point", "coordinates": [ 29.087264999513735, 41.147617000343708 ] } },
{ "type": "Feature", "properties": { "OBJECTID": 6616, "ILCE": "PENDİK", "MAHALLE": "ÇINARDERE", "NAME": "PENDİK ÜÇEVLER BÜFE", "TOPLAM_YAP": "230", "TOPLAM_ISY": 152.0, "TOPLAM_KON": 870.0, "TOPLAM_KIS": 7459.0 }, "geometry": { "type": "Point", "coordinates": [ 29.252021999741434, 40.896617999758377 ] } },
{ "type": "Feature", "properties": { "OBJECTID": 6617, "ILCE": "KARTAL", "MAHALLE": "ATALAR", "NAME": "ATALAR BÜFE", "TOPLAM_YAP": "206", "TOPLAM_ISY": 360.0, "TOPLAM_KON": 1750.0, "TOPLAM_KIS": 4955.0 }, "geometry": { "type": "Point", "coordinates": [ 29.167038999763896, 40.901451000290294 ] } },
{ "type": "Feature", "properties": { "OBJECTID": 6618, "ILCE": "TUZLA", "MAHALLE": "AYDINLI", "NAME": "AYDINLI MERKEZ BÜFE", "TOPLAM_YAP": "375", "TOPLAM_ISY": 93.0, "TOPLAM_KON": 498.0, "TOPLAM_KIS": 8465.0 }, "geometry": { "type": "Point", "coordinates": [ 29.329916000190018, 40.870560000385808 ] } },
{ "type": "Feature", "properties": { "OBJECTID": 6619, "ILCE": "TUZLA", "MAHALLE": "AYDINLI", "NAME": "TUZLA EMLAK BÜFE", "TOPLAM_YAP": "92", "TOPLAM_ISY": 0.0, "TOPLAM_KON": 891.0, "TOPLAM_KIS": 7018.0 }, "geometry": { "type": "Point", "coordinates": [ 29.317284000436647, 40.869251000254856 ] } },
{ "type": "Feature", "properties": { "OBJECTID": 6620, "ILCE": "KARTAL", "MAHALLE": "CEVİZLİ", "NAME": "CEVİZLİ FABRİKA BÜFE", "TOPLAM_YAP": "194", "TOPLAM_ISY": 128.0, "TOPLAM_KON": 777.0, "TOPLAM_KIS": 3349.0 }, "geometry": { "type": "Point", "coordinates": [ 29.169554000057158, 40.915988999775671 ] } },
{ "type": "Feature", "properties": { "OBJECTID": 6621, "ILCE": "PENDİK", "MAHALLE": "YENİŞEHİR", "NAME": "CUMHURİYET BÜFE", "TOPLAM_YAP": "84", "TOPLAM_ISY": 1.0, "TOPLAM_KON": 1305.0, "TOPLAM_KIS": 4440.0 }, "geometry": { "type": "Point", "coordinates": [ 29.309830000300231, 40.932843999860417 ] } },
{ "type": "Feature", "properties": { "OBJECTID": 6622, "ILCE": "KARTAL", "MAHALLE": "ORHANTEPE", "NAME": "ÇINAR PARK BÜFE", "TOPLAM_YAP": "430", "TOPLAM_ISY": 767.0, "TOPLAM_KON": 3150.0, "TOPLAM_KIS": 11766.0 }, "geometry": { "type": "Point", "coordinates": [ 29.163688999782604, 40.910196999735057 ] } },
{ "type": "Feature", "properties": { "OBJECTID": 6623, "ILCE": "PENDİK", "MAHALLE": "KAVAKPINAR", "NAME": "KAVAKPINAR BÜFE", "TOPLAM_YAP": "563", "TOPLAM_ISY": 229.0, "TOPLAM_KON": 1976.0, "TOPLAM_KIS": 10288.0 }, "geometry": { "type": "Point", "coordinates": [ 29.280835000443858, 40.880808000119778 ] } },
{ "type": "Feature", "properties": { "OBJECTID": 6624, "ILCE": "ÜSKÜDAR", "MAHALLE": "BAHÇELİEVLER", "NAME": "ÇENGELKÖY İTFAİYE BÜFE", "TOPLAM_YAP": "285", "TOPLAM_ISY": 2.0, "TOPLAM_KON": 0.0, "TOPLAM_KIS": 3487.0 }, "geometry": { "type": "Point", "coordinates": [ 29.076435000568772, 41.046936000248699 ] } },
{ "type": "Feature", "properties": { "OBJECTID": 6625, "ILCE": "ATAŞEHİR", "MAHALLE": "ÖRNEK", "NAME": "ÖRNEK BÜFE", "TOPLAM_YAP": "571", "TOPLAM_ISY": 332.0, "TOPLAM_KON": 1812.0, "TOPLAM_KIS": 11254.0 }, "geometry": { "type": "Point", "coordinates": [ 29.085150000533581, 40.995715999643117 ] } },
{ "type": "Feature", "properties": { "OBJECTID": 6626, "ILCE": "ÜSKÜDAR", "MAHALLE": "BULGURLU", "NAME": "BULGURLU BÜFE", "TOPLAM_YAP": "554", "TOPLAM_ISY": 5.0, "TOPLAM_KON": 0.0, "TOPLAM_KIS": 12095.0 }, "geometry": { "type": "Point", "coordinates": [ 29.081381000294908, 41.016437999944536 ] } },
{ "type": "Feature", "properties": { "OBJECTID": 6627, "ILCE": "ÜSKÜDAR", "MAHALLE": "BURHANİYE", "NAME": "EMNİYET BÜFE", "TOPLAM_YAP": "521", "TOPLAM_ISY": 0.0, "TOPLAM_KON": 0.0, "TOPLAM_KIS": 6856.0 }, "geometry": { "type": "Point", "coordinates": [ 29.058140000012123, 41.028380999937312 ] } },
{ "type": "Feature", "properties": { "OBJECTID": 6628, "ILCE": "KADIKÖY", "MAHALLE": "ACIBADEM", "NAME": "İKBALİYE BÜFE", "TOPLAM_YAP": "244", "TOPLAM_ISY": 122.0, "TOPLAM_KON": 2282.0, "TOPLAM_KIS": 6355.0 }, "geometry": { "type": "Point", "coordinates": [ 29.039353000398847, 41.000281000324343 ] } },
{ "type": "Feature", "properties": { "OBJECTID": 6629, "ILCE": "KADIKÖY", "MAHALLE": "ZÜHTÜPAŞA", "NAME": "KIZILTOPRAK BÜFE", "TOPLAM_YAP": "312", "TOPLAM_ISY": 600.0, "TOPLAM_KON": 2173.0, "TOPLAM_KIS": 4562.0 }, "geometry": { "type": "Point", "coordinates": [ 29.039415999877757, 40.983844999728063 ] } },
{ "type": "Feature", "properties": { "OBJECTID": 6630, "ILCE": "MALTEPE", "MAHALLE": "FINDIKLI", "NAME": "FINDIKLI MERKEZ BÜFE", "TOPLAM_YAP": "456", "TOPLAM_ISY": 168.0, "TOPLAM_KON": 1516.0, "TOPLAM_KIS": 9688.0 }, "geometry": { "type": "Point", "coordinates": [ 29.122977000409502, 40.968807000155898 ] } },
{ "type": "Feature", "properties": { "OBJECTID": 6631, "ILCE": "ATAŞEHİR", "MAHALLE": "İNÖNÜ", "NAME": "ATAŞEHİR FİDAN BÜFE", "TOPLAM_YAP": "340", "TOPLAM_ISY": 158.0, "TOPLAM_KON": 2456.0, "TOPLAM_KIS": 8801.0 }, "geometry": { "type": "Point", "coordinates": [ 29.134912999909812, 40.976141000185876 ] } },
{ "type": "Feature", "properties": { "OBJECTID": 6632, "ILCE": "ATAŞEHİR", "MAHALLE": "KAYIŞDAĞI", "NAME": "ATAŞEHİR SU DEPOSU BÜFE", "TOPLAM_YAP": "261", "TOPLAM_ISY": 163.0, "TOPLAM_KON": 1609.0, "TOPLAM_KIS": 5857.0 }, "geometry": { "type": "Point", "coordinates": [ 29.125474000110497, 40.97920400032519 ] } },
{ "type": "Feature", "properties": { "OBJECTID": 6633, "ILCE": "PENDİK", "MAHALLE": "GÜLLÜBAĞLAR", "NAME": "GÜLLÜBAĞLAR BÜFE", "TOPLAM_YAP": "394", "TOPLAM_ISY": 187.0, "TOPLAM_KON": 1362.0, "TOPLAM_KIS": 7995.0 }, "geometry": { "type": "Point", "coordinates": [ 29.273935000523423, 40.894573000310658 ] } },
{ "type": "Feature", "properties": { "OBJECTID": 6634, "ILCE": "ÜSKÜDAR", "MAHALLE": "KİRAZLITEPE", "NAME": "KİRAZLITEPE BÜFE", "TOPLAM_YAP": "411", "TOPLAM_ISY": 5.0, "TOPLAM_KON": 0.0, "TOPLAM_KIS": 5122.0 }, "geometry": { "type": "Point", "coordinates": [ 29.060614000202911, 41.037069000121683 ] } },
{ "type": "Feature", "properties": { "OBJECTID": 6635, "ILCE": "BEYKOZ", "MAHALLE": "ORTAÇEŞME", "NAME": "BEYKOZ PARKI BÜFE", "TOPLAM_YAP": "370", "TOPLAM_ISY": 81.0, "TOPLAM_KON": 728.0, "TOPLAM_KIS": 2115.0 }, "geometry": { "type": "Point", "coordinates": [ 29.085930999640649, 41.140259999676118 ] } },
{ "type": "Feature", "properties": { "OBJECTID": 6636, "ILCE": "ATAŞEHİR", "MAHALLE": "KÜÇÜKBAKKALKÖY", "NAME": "KÜÇÜKBAKKALKÖY MERKEZ BÜFE", "TOPLAM_YAP": "334", "TOPLAM_ISY": 344.0, "TOPLAM_KON": 1728.0, "TOPLAM_KIS": 6251.0 }, "geometry": { "type": "Point", "coordinates": [ 29.1119600000745, 40.980795999671066 ] } },
{ "type": "Feature", "properties": { "OBJECTID": 6637, "ILCE": "PENDİK", "MAHALLE": "YENİŞEHİR", "NAME": "ORHANGAZİ BÜFE", "TOPLAM_YAP": "59", "TOPLAM_ISY": 18.0, "TOPLAM_KON": 1512.0, "TOPLAM_KIS": 5581.0 }, "geometry": { "type": "Point", "coordinates": [ 29.298116000050861, 40.925354999873115 ] } },
{ "type": "Feature", "properties": { "OBJECTID": 6638, "ILCE": "PENDİK", "MAHALLE": "SÜLÜNTEPE", "NAME": "PENDİK TOKİ BÜFE", "TOPLAM_YAP": "143", "TOPLAM_ISY": 29.0, "TOPLAM_KON": 536.0, "TOPLAM_KIS": 4559.0 }, "geometry": { "type": "Point", "coordinates": [ 29.278518999757097, 40.908573999573605 ] } },
{ "type": "Feature", "properties": { "OBJECTID": 6639, "ILCE": "KARTAL", "MAHALLE": "ATALAR", "NAME": "SEYRANTEPE BÜFE", "TOPLAM_YAP": "475", "TOPLAM_ISY": 243.0, "TOPLAM_KON": 2342.0, "TOPLAM_KIS": 9360.0 }, "geometry": { "type": "Point", "coordinates": [ 29.177305999956999, 40.9084420003582 ] } },
{ "type": "Feature", "properties": { "OBJECTID": 6640, "ILCE": "KADIKÖY", "MAHALLE": "19 MAYIS", "NAME": "KAZASKER BÜFE", "TOPLAM_YAP": "205", "TOPLAM_ISY": 378.0, "TOPLAM_KON": 2956.0, "TOPLAM_KIS": 8263.0 }, "geometry": { "type": "Point", "coordinates": [ 29.085528999904625, 40.968874999875339 ] } },
{ "type": "Feature", "properties": { "OBJECTID": 6641, "ILCE": "KADIKÖY", "MAHALLE": "FENERYOLU", "NAME": "KUYUBAŞI BÜFE", "TOPLAM_YAP": "316", "TOPLAM_ISY": 368.0, "TOPLAM_KON": 3529.0, "TOPLAM_KIS": 9515.0 }, "geometry": { "type": "Point", "coordinates": [ 29.048185000071484, 40.98585000039315 ] } },
{ "type": "Feature", "properties": { "OBJECTID": 6642, "ILCE": "BAŞAKŞEHİR", "MAHALLE": "KAYABAŞI", "NAME": "FENERTEPE 2 BÜFE", "TOPLAM_YAP": "13", "TOPLAM_ISY": 0.0, "TOPLAM_KON": 408.0, "TOPLAM_KIS": 2072.0 }, "geometry": { "type": "Point", "coordinates": [ 28.787677999890175, 41.133216000304095 ] } },
{ "type": "Feature", "properties": { "OBJECTID": 6643, "ILCE": "BAŞAKŞEHİR", "MAHALLE": "KAYABAŞI", "NAME": "KAYAŞEHİR 1 BÜFE", "TOPLAM_YAP": "28", "TOPLAM_ISY": 1.0, "TOPLAM_KON": 1217.0, "TOPLAM_KIS": 4764.0 }, "geometry": { "type": "Point", "coordinates": [ 28.758703999931637, 41.107094000013568 ] } },
{ "type": "Feature", "properties": { "OBJECTID": 6644, "ILCE": "BAŞAKŞEHİR", "MAHALLE": "KAYABAŞI", "NAME": "FENERTEPE 3 BÜFE", "TOPLAM_YAP": "32", "TOPLAM_ISY": null, "TOPLAM_KON": null, "TOPLAM_KIS": 3055.0 }, "geometry": { "type": "Point", "coordinates": [ 28.777369000336943, 41.127822000405608 ] } },
{ "type": "Feature", "properties": { "OBJECTID": 6645, "ILCE": "KÜÇÜKÇEKMECE", "MAHALLE": "İSTASYON", "NAME": "AYDIN BÜFE", "TOPLAM_YAP": "264", "TOPLAM_ISY": 119.0, "TOPLAM_KON": 1081.0, "TOPLAM_KIS": 4709.0 }, "geometry": { "type": "Point", "coordinates": [ 28.769974000188888, 41.033358000210363 ] } },
{ "type": "Feature", "properties": { "OBJECTID": 6646, "ILCE": "SULTANGAZİ", "MAHALLE": "ESENTEPE", "NAME": "CEBECİ FABRİKA BÜFE", "TOPLAM_YAP": "57", "TOPLAM_ISY": 5.0, "TOPLAM_KON": 91.0, "TOPLAM_KIS": 320.0 }, "geometry": { "type": "Point", "coordinates": [ 28.87999499952544, 41.106794000156391 ] } },
{ "type": "Feature", "properties": { "OBJECTID": 6647, "ILCE": "ATAŞEHİR", "MAHALLE": "ÖRNEK", "NAME": "LİBADİYE BÜFE", "TOPLAM_YAP": "235", "TOPLAM_ISY": 17.0, "TOPLAM_KON": 751.0, "TOPLAM_KIS": 5175.0 }, "geometry": { "type": "Point", "coordinates": [ 29.091424867343996, 41.008225787095647 ] } },
{ "type": "Feature", "properties": { "OBJECTID": 6648, "ILCE": "ESENYURT", "MAHALLE": "YUNUS EMRE", "NAME": "ESENYURT YUNUS EMRE BÜFE", "TOPLAM_YAP": "1206", "TOPLAM_ISY": 254.0, "TOPLAM_KON": 2838.0, "TOPLAM_KIS": 24210.0 }, "geometry": { "type": "Point", "coordinates": [ 28.69367600055422, 41.028462999601579 ] } },
{ "type": "Feature", "properties": { "OBJECTID": 6649, "ILCE": "PENDİK", "MAHALLE": "KURTKÖY", "NAME": "KURTKÖY KANARYA BÜFE", "TOPLAM_YAP": "189", "TOPLAM_ISY": 21.0, "TOPLAM_KON": 393.0, "TOPLAM_KIS": 7222.0 }, "geometry": { "type": "Point", "coordinates": [ 29.306784999541229, 40.913117999852126 ] } },
{ "type": "Feature", "properties": { "OBJECTID": 6650, "ILCE": "BÜYÜKÇEKMECE", "MAHALLE": "PINARTEPE", "NAME": "ADNAN MENDERES BÜFE", "TOPLAM_YAP": "92", "TOPLAM_ISY": 34.0, "TOPLAM_KON": 477.0, "TOPLAM_KIS": 2368.0 }, "geometry": { "type": "Point", "coordinates": [ 28.607162000584999, 40.998475000119264 ] } },
{ "type": "Feature", "properties": { "OBJECTID": 6651, "ILCE": "KAĞITHANE", "MAHALLE": "SEYRANTEPE", "NAME": "SEYRANTEPE 1 BÜFE", "TOPLAM_YAP": "425", "TOPLAM_ISY": 1209.0, "TOPLAM_KON": 2401.0, "TOPLAM_KIS": 8108.0 }, "geometry": { "type": "Point", "coordinates": [ 28.995237999628959, 41.099339000232909 ] } },
{ "type": "Feature", "properties": { "OBJECTID": 6652, "ILCE": "BAĞCILAR", "MAHALLE": "FEVZİ ÇAKMAK", "NAME": "BAĞCILAR OLİMPİA PARK BÜFE", "TOPLAM_YAP": "512", "TOPLAM_ISY": 32.0, "TOPLAM_KON": 2326.0, "TOPLAM_KIS": 11869.0 }, "geometry": { "type": "Point", "coordinates": [ 28.852296000148819, 41.042725000289195 ] } },
{ "type": "Feature", "properties": { "OBJECTID": 6653, "ILCE": "PENDİK", "MAHALLE": "YENİŞEHİR", "NAME": "YENİŞEHİR BÜFE", "TOPLAM_YAP": "29", "TOPLAM_ISY": 2.0, "TOPLAM_KON": 631.0, "TOPLAM_KIS": 1849.0 }, "geometry": { "type": "Point", "coordinates": [ 29.291994000187373, 40.926605999751565 ] } },
{ "type": "Feature", "properties": { "OBJECTID": 6654, "ILCE": "PENDİK", "MAHALLE": "GÜZELYALI", "NAME": "PENDİK İSTİKLAL BÜFE", "TOPLAM_YAP": "783", "TOPLAM_ISY": 341.0, "TOPLAM_KON": 2839.0, "TOPLAM_KIS": 14409.0 }, "geometry": { "type": "Point", "coordinates": [ 29.287943999883488, 40.863625000141717 ] } },
{ "type": "Feature", "properties": { "OBJECTID": 6655, "ILCE": "EYÜPSULTAN", "MAHALLE": "DEFTERDAR", "NAME": "EDİRNEKAPI FABRİKA BÜFE", "TOPLAM_YAP": "213", "TOPLAM_ISY": 37.0, "TOPLAM_KON": 618.0, "TOPLAM_KIS": 2671.0 }, "geometry": { "type": "Point", "coordinates": [ 28.937428000300258, 41.033843000371547 ] } },
{ "type": "Feature", "properties": { "OBJECTID": 6656, "ILCE": "G.O.PAŞA", "MAHALLE": "KAZIMKARABEKİR", "NAME": "KAZIM KARABEKİR 1 BÜFE", "TOPLAM_YAP": "733", "TOPLAM_ISY": 652.0, "TOPLAM_KON": 4891.0, "TOPLAM_KIS": 20516.0 }, "geometry": { "type": "Point", "coordinates": [ 28.912439999966711, 41.077956999601511 ] } },
{ "type": "Feature", "properties": { "OBJECTID": 6657, "ILCE": "ESENLER", "MAHALLE": "ORUÇREİS", "NAME": "YÜZYIL BÜFE", "TOPLAM_YAP": "964", "TOPLAM_ISY": 628.0, "TOPLAM_KON": 4340.0, "TOPLAM_KIS": 16696.0 }, "geometry": { "type": "Point", "coordinates": [ 28.857976000058528, 41.055889000420159 ] } },
{ "type": "Feature", "properties": { "OBJECTID": 6658, "ILCE": "BÜYÜKÇEKMECE", "MAHALLE": "DİZDARİYE", "NAME": "DİZDARİYE BÜFE", "TOPLAM_YAP": "339", "TOPLAM_ISY": 667.0, "TOPLAM_KON": 1618.0, "TOPLAM_KIS": 5178.0 }, "geometry": { "type": "Point", "coordinates": [ 28.577988999881054, 41.020776999914517 ] } },
{ "type": "Feature", "properties": { "OBJECTID": 6659, "ILCE": "EYÜPSULTAN", "MAHALLE": "MERKEZ", "NAME": "GÜMÜŞSUYU BÜFE", "TOPLAM_YAP": "832", "TOPLAM_ISY": 173.0, "TOPLAM_KON": 2494.0, "TOPLAM_KIS": 13932.0 }, "geometry": { "type": "Point", "coordinates": [ 28.940585999875044, 41.059495999897436 ] } },
{ "type": "Feature", "properties": { "OBJECTID": 6660, "ILCE": "MALTEPE", "MAHALLE": "BAŞIBÜYÜK", "NAME": "BAŞIBÜYÜK BÜFE", "TOPLAM_YAP": "491", "TOPLAM_ISY": 94.0, "TOPLAM_KON": 1295.0, "TOPLAM_KIS": 4839.0 }, "geometry": { "type": "Point", "coordinates": [ 29.148282999963193, 40.95882799966418 ] } },
{ "type": "Feature", "properties": { "OBJECTID": 6661, "ILCE": "PENDİK", "MAHALLE": "ERTUĞRULGAZİ", "NAME": "ERTUĞRUL GAZİ BÜFE", "TOPLAM_YAP": "528", "TOPLAM_ISY": 153.0, "TOPLAM_KON": 655.0, "TOPLAM_KIS": 2521.0 }, "geometry": { "type": "Point", "coordinates": [ 29.262669999522839, 40.919445999686182 ] } },
{ "type": "Feature", "properties": { "OBJECTID": 6662, "ILCE": "SANCAKTEPE", "MAHALLE": "ABDURRAHMANGAZİ", "NAME": "NECİP FAZIL BÜFE", "TOPLAM_YAP": "162", "TOPLAM_ISY": 18.0, "TOPLAM_KON": 207.0, "TOPLAM_KIS": 2857.0 }, "geometry": { "type": "Point", "coordinates": [ 29.245737999496352, 40.998393000125141 ] } },
{ "type": "Feature", "properties": { "OBJECTID": 6663, "ILCE": "EYÜPSULTAN", "MAHALLE": "GÖKTÜRK", "NAME": "GÖKTÜRK MERKEZ BÜFE", "TOPLAM_YAP": "354", "TOPLAM_ISY": 36.0, "TOPLAM_KON": 508.0, "TOPLAM_KIS": 6602.0 }, "geometry": { "type": "Point", "coordinates": [ 28.885874999688557, 41.186317999886484 ] } },
{ "type": "Feature", "properties": { "OBJECTID": 6664, "ILCE": "ÜSKÜDAR", "MAHALLE": "İCADİYE", "NAME": "FISTIKAĞACI BÜFE", "TOPLAM_YAP": "564", "TOPLAM_ISY": 7.0, "TOPLAM_KON": 0.0, "TOPLAM_KIS": 10227.0 }, "geometry": { "type": "Point", "coordinates": [ 29.028885000488138, 41.028132000156241 ] } },
{ "type": "Feature", "properties": { "OBJECTID": 6752, "ILCE": "KÜÇÜKÇEKMECE", "MAHALLE": "YARIMBURGAZ", "NAME": "YARIMBURGAZ BÜFE", "TOPLAM_YAP": "277", "TOPLAM_ISY": 87.0, "TOPLAM_KON": 671.0, "TOPLAM_KIS": 2511.0 }, "geometry": { "type": "Point", "coordinates": [ 28.754137000548209, 41.048802000209093 ] } },
{ "type": "Feature", "properties": { "OBJECTID": 6753, "ILCE": "SULTANGAZİ", "MAHALLE": "İSMETPAŞA", "NAME": "İSMETPAŞA 2 BÜFE", "TOPLAM_YAP": "1252", "TOPLAM_ISY": 553.0, "TOPLAM_KON": 5962.0, "TOPLAM_KIS": 26068.0 }, "geometry": { "type": "Point", "coordinates": [ 28.854289999997867, 41.105959999835193 ] } },
{ "type": "Feature", "properties": { "OBJECTID": 6754, "ILCE": "G.O.PAŞA", "MAHALLE": "BARBAROS HAYRETTİN PAŞA", "NAME": "BARBAROS HAYRETTİN PAŞA 1 BÜFE", "TOPLAM_YAP": "807", "TOPLAM_ISY": 692.0, "TOPLAM_KON": 4521.0, "TOPLAM_KIS": 15816.0 }, "geometry": { "type": "Point", "coordinates": [ 28.896072000005102, 41.075962999682829 ] } },
{ "type": "Feature", "properties": { "OBJECTID": 6755, "ILCE": "SULTANGAZİ", "MAHALLE": "İSMETPAŞA", "NAME": "İSMETPAŞA 1 BÜFE", "TOPLAM_YAP": "927", "TOPLAM_ISY": 654.0, "TOPLAM_KON": 4761.0, "TOPLAM_KIS": 22055.0 }, "geometry": { "type": "Point", "coordinates": [ 28.853560000520801, 41.11200900010121 ] } },
{ "type": "Feature", "properties": { "OBJECTID": 6756, "ILCE": "KÜÇÜKÇEKMECE", "MAHALLE": "FATİH", "NAME": "KÜÇÜKÇEKMECE BÜFE", "TOPLAM_YAP": "190", "TOPLAM_ISY": 356.0, "TOPLAM_KON": 1227.0, "TOPLAM_KIS": 5489.0 }, "geometry": { "type": "Point", "coordinates": [ 28.771615999665844, 40.991137999951626 ] } },
{ "type": "Feature", "properties": { "OBJECTID": 6757, "ILCE": "KÜÇÜKÇEKMECE", "MAHALLE": "KARTALTEPE", "NAME": "KARTALTEPE BÜFE", "TOPLAM_YAP": "891", "TOPLAM_ISY": 1053.0, "TOPLAM_KON": 4036.0, "TOPLAM_KIS": 15216.0 }, "geometry": { "type": "Point", "coordinates": [ 28.800404000231371, 41.004167000148129 ] } },
{ "type": "Feature", "properties": { "OBJECTID": 6758, "ILCE": "KÜÇÜKÇEKMECE", "MAHALLE": "YEŞİLOVA", "NAME": "YEŞİLOVA BÜFE", "TOPLAM_YAP": "687", "TOPLAM_ISY": 787.0, "TOPLAM_KON": 4912.0, "TOPLAM_KIS": 16623.0 }, "geometry": { "type": "Point", "coordinates": [ 28.783930999619695, 40.992286000057142 ] } },
{ "type": "Feature", "properties": { "OBJECTID": 6759, "ILCE": "KÜÇÜKÇEKMECE", "MAHALLE": "CUMHURİYET", "NAME": "YURTARSLAN BÜFE", "TOPLAM_YAP": "716", "TOPLAM_ISY": 469.0, "TOPLAM_KON": 3602.0, "TOPLAM_KIS": 15377.0 }, "geometry": { "type": "Point", "coordinates": [ 28.781065999449556, 41.003288999544615 ] } },
{ "type": "Feature", "properties": { "OBJECTID": 6760, "ILCE": "AVCILAR", "MAHALLE": "ÜNİVERSİTE", "NAME": "AVCILAR GEÇİT BÜFE", "TOPLAM_YAP": "309", "TOPLAM_ISY": 151.0, "TOPLAM_KON": 1132.0, "TOPLAM_KIS": 6522.0 }, "geometry": { "type": "Point", "coordinates": [ 28.713710000488142, 40.9909659997601 ] } },
{ "type": "Feature", "properties": { "OBJECTID": 6761, "ILCE": "ESENYURT", "MAHALLE": "MEHTERÇEŞME", "NAME": "MEHTER ÇEŞME BÜFE", "TOPLAM_YAP": "908", "TOPLAM_ISY": 292.0, "TOPLAM_KON": 4747.0, "TOPLAM_KIS": 28418.0 }, "geometry": { "type": "Point", "coordinates": [ 28.664873999411732, 41.017888000384715 ] } },
{ "type": "Feature", "properties": { "OBJECTID": 6762, "ILCE": "ESENYURT", "MAHALLE": "İSTİKLAL", "NAME": "KIRAÇ İSTİKLAL BÜFE", "TOPLAM_YAP": "636", "TOPLAM_ISY": 133.0, "TOPLAM_KON": 2526.0, "TOPLAM_KIS": 14353.0 }, "geometry": { "type": "Point", "coordinates": [ 28.6469790004167, 41.036447999895003 ] } },
{ "type": "Feature", "properties": { "OBJECTID": 6763, "ILCE": "ÜMRANİYE", "MAHALLE": "NAMIK KEMAL", "NAME": "MEVLANA BÜFE", "TOPLAM_YAP": "781", "TOPLAM_ISY": 1316.0, "TOPLAM_KON": 4770.0, "TOPLAM_KIS": 15055.0 }, "geometry": { "type": "Point", "coordinates": [ 29.091871000285643, 41.023785000028319 ] } },
{ "type": "Feature", "properties": { "OBJECTID": 6764, "ILCE": "ATAŞEHİR", "MAHALLE": "İÇERENKÖY", "NAME": "KOZYATAĞI METRO BÜFE", "TOPLAM_YAP": "7", "TOPLAM_ISY": 8.0, "TOPLAM_KON": 121.0, "TOPLAM_KIS": 156.0 }, "geometry": { "type": "Point", "coordinates": [ 29.09931399997539, 40.975564000157348 ] } },
{ "type": "Feature", "properties": { "OBJECTID": 6765, "ILCE": "ÜMRANİYE", "MAHALLE": "YAMANEVLER", "NAME": "ÜMRANİYE MERKEZ BÜFE", "TOPLAM_YAP": "321", "TOPLAM_ISY": 538.0, "TOPLAM_KON": 1792.0, "TOPLAM_KIS": 6246.0 }, "geometry": { "type": "Point", "coordinates": [ 29.101476999854562, 41.024822000382692 ] } },
{ "type": "Feature", "properties": { "OBJECTID": 6766, "ILCE": "ÜMRANİYE", "MAHALLE": "NAMIK KEMAL", "NAME": "MARMARA BÜFE", "TOPLAM_YAP": "597", "TOPLAM_ISY": 387.0, "TOPLAM_KON": 4201.0, "TOPLAM_KIS": 16131.0 }, "geometry": { "type": "Point", "coordinates": [ 29.096700000453872, 41.019833999819575 ] } },
{ "type": "Feature", "properties": { "OBJECTID": 6767, "ILCE": "ÜMRANİYE", "MAHALLE": "ATATÜRK", "NAME": "ÜMRANİYE TANZİM BÜFE", "TOPLAM_YAP": "596", "TOPLAM_ISY": 1074.0, "TOPLAM_KON": 3635.0, "TOPLAM_KIS": 13120.0 }, "geometry": { "type": "Point", "coordinates": [ 29.09094500023804, 41.027123999852066 ] } },
{ "type": "Feature", "properties": { "OBJECTID": 6768, "ILCE": "ÜMRANİYE", "MAHALLE": "İNKILAP", "NAME": "ÜMRANİYE VATAN BÜFE", "TOPLAM_YAP": "664", "TOPLAM_ISY": 396.0, "TOPLAM_KON": 2195.0, "TOPLAM_KIS": 9123.0 }, "geometry": { "type": "Point", "coordinates": [ 29.104214000392563, 41.035228999905023 ] } },
{ "type": "Feature", "properties": { "OBJECTID": 6769, "ILCE": "ÜMRANİYE", "MAHALLE": "IHLAMURKUYU", "NAME": "TAVUKÇUYOLU BÜFE", "TOPLAM_YAP": "537", "TOPLAM_ISY": 413.0, "TOPLAM_KON": 3028.0, "TOPLAM_KIS": 13244.0 }, "geometry": { "type": "Point", "coordinates": [ 29.136873000055218, 41.012314000278309 ] } },
{ "type": "Feature", "properties": { "OBJECTID": 6770, "ILCE": "G.O.PAŞA", "MAHALLE": "HURRİYET", "NAME": "HÜRRİYET PAŞAÇAYIRI BÜFE", "TOPLAM_YAP": "982", "TOPLAM_ISY": 1197.0, "TOPLAM_KON": 5684.0, "TOPLAM_KIS": 18324.0 }, "geometry": { "type": "Point", "coordinates": [ 28.899898000338361, 41.067133000095225 ] } },
{ "type": "Feature", "properties": { "OBJECTID": 6771, "ILCE": "SULTANGAZİ", "MAHALLE": "CEBECİ", "NAME": "CEBECİ 2 BÜFE", "TOPLAM_YAP": "1344", "TOPLAM_ISY": 811.0, "TOPLAM_KON": 6101.0, "TOPLAM_KIS": 22708.0 }, "geometry": { "type": "Point", "coordinates": [ 28.867669000466979, 41.109818000312231 ] } },
{ "type": "Feature", "properties": { "OBJECTID": 6772, "ILCE": "G.O.PAŞA", "MAHALLE": "BARBAROS HAYRETTİN PAŞA", "NAME": "BARBAROS HAYRETTİN PAŞA 3 BÜFE", "TOPLAM_YAP": "1057", "TOPLAM_ISY": 1167.0, "TOPLAM_KON": 5692.0, "TOPLAM_KIS": 20826.0 }, "geometry": { "type": "Point", "coordinates": [ 28.887855000451214, 41.074729999770753 ] } },
{ "type": "Feature", "properties": { "OBJECTID": 6773, "ILCE": "G.O.PAŞA", "MAHALLE": "YENİMAHALLE", "NAME": "KÜÇÜKKÖY YENİ BÜFE", "TOPLAM_YAP": "523", "TOPLAM_ISY": 300.0, "TOPLAM_KON": 3151.0, "TOPLAM_KIS": 15700.0 }, "geometry": { "type": "Point", "coordinates": [ 28.900636999648533, 41.077906000124543 ] } },
{ "type": "Feature", "properties": { "OBJECTID": 6774, "ILCE": "SULTANGAZİ", "MAHALLE": "ESENTEPE", "NAME": "ESENTEPE 2 BÜFE", "TOPLAM_YAP": "1006", "TOPLAM_ISY": 647.0, "TOPLAM_KON": 5316.0, "TOPLAM_KIS": 26038.0 }, "geometry": { "type": "Point", "coordinates": [ 28.88080900018457, 41.101804000083064 ] } },
{ "type": "Feature", "properties": { "OBJECTID": 6775, "ILCE": "SULTANGAZİ", "MAHALLE": "YUNUS EMRE", "NAME": "GAZİ 4 BÜFE", "TOPLAM_YAP": "535", "TOPLAM_ISY": 304.0, "TOPLAM_KON": 2674.0, "TOPLAM_KIS": 15579.0 }, "geometry": { "type": "Point", "coordinates": [ 28.895689999425109, 41.09335600001986 ] } },
{ "type": "Feature", "properties": { "OBJECTID": 6776, "ILCE": "SULTANGAZİ", "MAHALLE": "GAZİ", "NAME": "GAZİ 3 BÜFE", "TOPLAM_YAP": "636", "TOPLAM_ISY": 534.0, "TOPLAM_KON": 4253.0, "TOPLAM_KIS": 17578.0 }, "geometry": { "type": "Point", "coordinates": [ 28.899874999474022, 41.098914999665077 ] } },
{ "type": "Feature", "properties": { "OBJECTID": 6777, "ILCE": "SULTANGAZİ", "MAHALLE": "75.YIL", "NAME": "GAZİ BAŞAR BÜFE", "TOPLAM_YAP": "786", "TOPLAM_ISY": 655.0, "TOPLAM_KON": 4932.0, "TOPLAM_KIS": 19679.0 }, "geometry": { "type": "Point", "coordinates": [ 28.905320999506593, 41.095764000084912 ] } },
{ "type": "Feature", "properties": { "OBJECTID": 6778, "ILCE": "KÜÇÜKÇEKMECE", "MAHALLE": "CUMHURİYET", "NAME": "BEREKET BÜFE", "TOPLAM_YAP": "321", "TOPLAM_ISY": 239.0, "TOPLAM_KON": 2961.0, "TOPLAM_KIS": 12110.0 }, "geometry": { "type": "Point", "coordinates": [ 28.77518300041158, 41.00059699964676 ] } },
{ "type": "Feature", "properties": { "OBJECTID": 6779, "ILCE": "KÜÇÜKÇEKMECE", "MAHALLE": "İNÖNÜ", "NAME": "MASLAK ÇEŞME 2 BÜFE", "TOPLAM_YAP": "668", "TOPLAM_ISY": 331.0, "TOPLAM_KON": 3615.0, "TOPLAM_KIS": 13408.0 }, "geometry": { "type": "Point", "coordinates": [ 28.797486000127883, 41.016699000131723 ] } },
{ "type": "Feature", "properties": { "OBJECTID": 6780, "ILCE": "KÜÇÜKÇEKMECE", "MAHALLE": "İNÖNÜ", "NAME": "MASLAK ÇEŞME 1 BÜFE", "TOPLAM_YAP": "964", "TOPLAM_ISY": 482.0, "TOPLAM_KON": 4957.0, "TOPLAM_KIS": 18535.0 }, "geometry": { "type": "Point", "coordinates": [ 28.796524999582473, 41.023532999841713 ] } },
{ "type": "Feature", "properties": { "OBJECTID": 6781, "ILCE": "KÜÇÜKÇEKMECE", "MAHALLE": "CENNET", "NAME": "TEVFİKBEY 3 BÜFE", "TOPLAM_YAP": "792", "TOPLAM_ISY": 557.0, "TOPLAM_KON": 3747.0, "TOPLAM_KIS": 14490.0 }, "geometry": { "type": "Point", "coordinates": [ 28.781193000564301, 40.996701000324911 ] } },
{ "type": "Feature", "properties": { "OBJECTID": 6782, "ILCE": "KÜÇÜKÇEKMECE", "MAHALLE": "KEMALPAŞA", "NAME": "ÇARDAKTEPE BÜFE", "TOPLAM_YAP": "1015", "TOPLAM_ISY": 994.0, "TOPLAM_KON": 5438.0, "TOPLAM_KIS": 18771.0 }, "geometry": { "type": "Point", "coordinates": [ 28.790044999543721, 41.002934000176232 ] } },
{ "type": "Feature", "properties": { "OBJECTID": 6783, "ILCE": "KÜÇÜKÇEKMECE", "MAHALLE": "FEVZİ ÇAKMAK", "NAME": "SEFAKÖY BÜFE", "TOPLAM_YAP": "801", "TOPLAM_ISY": 1252.0, "TOPLAM_KON": 4589.0, "TOPLAM_KIS": 13870.0 }, "geometry": { "type": "Point", "coordinates": [ 28.794290000117375, 41.004004000087775 ] } },
{ "type": "Feature", "properties": { "OBJECTID": 6784, "ILCE": "KÜÇÜKÇEKMECE", "MAHALLE": "YEŞİLOVA", "NAME": "SEYRAN BÜFE", "TOPLAM_YAP": "1020", "TOPLAM_ISY": 1137.0, "TOPLAM_KON": 6796.0, "TOPLAM_KIS": 22149.0 }, "geometry": { "type": "Point", "coordinates": [ 28.787979000244409, 40.994083000234056 ] } },
{ "type": "Feature", "properties": { "OBJECTID": 6785, "ILCE": "KÜÇÜKÇEKMECE", "MAHALLE": "CENNET", "NAME": "KÜÇÜKÇEKMECE YAHYA KEMAL BÜFE", "TOPLAM_YAP": "518", "TOPLAM_ISY": 506.0, "TOPLAM_KON": 4408.0, "TOPLAM_KIS": 15478.0 }, "geometry": { "type": "Point", "coordinates": [ 28.777011999732032, 40.991971999983463 ] } },
{ "type": "Feature", "properties": { "OBJECTID": 6786, "ILCE": "KÜÇÜKÇEKMECE", "MAHALLE": "SÖĞÜTLÜÇEŞME", "NAME": "SÖĞÜTLÜÇEŞME BÜFE", "TOPLAM_YAP": "780", "TOPLAM_ISY": 197.0, "TOPLAM_KON": 2984.0, "TOPLAM_KIS": 11144.0 }, "geometry": { "type": "Point", "coordinates": [ 28.782203999914881, 41.018986000027347 ] } },
{ "type": "Feature", "properties": { "OBJECTID": 6787, "ILCE": "SULTANGAZİ", "MAHALLE": "SULTANÇİFTLİĞİ", "NAME": "SULTAN 1 BÜFE", "TOPLAM_YAP": "503", "TOPLAM_ISY": 486.0, "TOPLAM_KON": 2177.0, "TOPLAM_KIS": 9302.0 }, "geometry": { "type": "Point", "coordinates": [ 28.862207000333797, 41.104732000343219 ] } },
{ "type": "Feature", "properties": { "OBJECTID": 6788, "ILCE": "G.O.PAŞA", "MAHALLE": "KARLITEPE", "NAME": "KARLITEPE BÜFE", "TOPLAM_YAP": "868", "TOPLAM_ISY": 338.0, "TOPLAM_KON": 3758.0, "TOPLAM_KIS": 15012.0 }, "geometry": { "type": "Point", "coordinates": [ 28.926769000378069, 41.061869000374948 ] } },
{ "type": "Feature", "properties": { "OBJECTID": 6789, "ILCE": "KÜÇÜKÇEKMECE", "MAHALLE": "BEŞYOL", "NAME": "KÜÇÜKÇEKMECE METROBÜS BÜFE", "TOPLAM_YAP": "17", "TOPLAM_ISY": 21.0, "TOPLAM_KON": 190.0, "TOPLAM_KIS": 526.0 }, "geometry": { "type": "Point", "coordinates": [ 28.769376000414439, 40.985997000348576 ] } },
{ "type": "Feature", "properties": { "OBJECTID": 6790, "ILCE": "ÜSKÜDAR", "MAHALLE": "KÜÇÜKSU", "NAME": "RASATHANE BÜFE", "TOPLAM_YAP": "223", "TOPLAM_ISY": 0.0, "TOPLAM_KON": 0.0, "TOPLAM_KIS": 2639.0 }, "geometry": { "type": "Point", "coordinates": [ 29.06597299977269, 41.062164000313352 ] } },
{ "type": "Feature", "properties": { "OBJECTID": 6791, "ILCE": "SULTANGAZİ", "MAHALLE": "CEBECİ", "NAME": "HAMARAT BÜFE", "TOPLAM_YAP": "1077", "TOPLAM_ISY": 544.0, "TOPLAM_KON": 5082.0, "TOPLAM_KIS": 19769.0 }, "geometry": { "type": "Point", "coordinates": [ 28.872500999953647, 41.109572999626387 ] } },
{ "type": "Feature", "properties": { "OBJECTID": 6792, "ILCE": "KÜÇÜKÇEKMECE", "MAHALLE": "ATAKENT", "NAME": "MENEKŞE BÜFE", "TOPLAM_YAP": "28", "TOPLAM_ISY": 0.0, "TOPLAM_KON": 1349.0, "TOPLAM_KIS": 3903.0 }, "geometry": { "type": "Point", "coordinates": [ 28.772352000487018, 41.037860999634162 ] } },
{ "type": "Feature", "properties": { "OBJECTID": 6793, "ILCE": "ESENYURT", "MAHALLE": "YENİKENT", "NAME": "YENİKENT 1 BÜFE", "TOPLAM_YAP": "681", "TOPLAM_ISY": 184.0, "TOPLAM_KON": 2461.0, "TOPLAM_KIS": 21965.0 }, "geometry": { "type": "Point", "coordinates": [ 28.680420000177588, 41.04285099996374 ] } },
{ "type": "Feature", "properties": { "OBJECTID": 6794, "ILCE": "BAŞAKŞEHİR", "MAHALLE": "BAŞAK", "NAME": "VADİ CENTER BÜFE", "TOPLAM_YAP": "100", "TOPLAM_ISY": 1.0, "TOPLAM_KON": 1200.0, "TOPLAM_KIS": 6302.0 }, "geometry": { "type": "Point", "coordinates": [ 28.809806000100274, 41.105854000421012 ] } },
{ "type": "Feature", "properties": { "OBJECTID": 6795, "ILCE": "ESENLER", "MAHALLE": "FEVZİ ÇAKMAK", "NAME": "HAKKI BAŞAR BÜFE", "TOPLAM_YAP": "911", "TOPLAM_ISY": 568.0, "TOPLAM_KON": 4208.0, "TOPLAM_KIS": 17562.0 }, "geometry": { "type": "Point", "coordinates": [ 28.865373999871647, 41.045477999902324 ] } },
{ "type": "Feature", "properties": { "OBJECTID": 6796, "ILCE": "BEYKOZ", "MAHALLE": "KAVACIK", "NAME": "KAVACIK BÜFE", "TOPLAM_YAP": "466", "TOPLAM_ISY": 312.0, "TOPLAM_KON": 2016.0, "TOPLAM_KIS": 6230.0 }, "geometry": { "type": "Point", "coordinates": [ 29.081086000365133, 41.089287999808242 ] } },
{ "type": "Feature", "properties": { "OBJECTID": 6797, "ILCE": "BEYLİKDÜZÜ", "MAHALLE": "BÜYÜKŞEHİR", "NAME": "BEYLİKDÜZÜ BÜYÜKŞEHİR BÜFE", "TOPLAM_YAP": "68", "TOPLAM_ISY": 100.0, "TOPLAM_KON": 3030.0, "TOPLAM_KIS": 8440.0 }, "geometry": { "type": "Point", "coordinates": [ 28.645801000269334, 41.003585999986335 ] } },
{ "type": "Feature", "properties": { "OBJECTID": 6798, "ILCE": "KAĞITHANE", "MAHALLE": "HAMİDİYE", "NAME": "DURAK BAYRAK BÜFE", "TOPLAM_YAP": "435", "TOPLAM_ISY": 639.0, "TOPLAM_KON": 2840.0, "TOPLAM_KIS": 13090.0 }, "geometry": { "type": "Point", "coordinates": [ 28.968959999911874, 41.093926000267835 ] } },
{ "type": "Feature", "properties": { "OBJECTID": 6799, "ILCE": "EYÜPSULTAN", "MAHALLE": "GÜZELTEPE", "NAME": "NURTEPE BÜFE", "TOPLAM_YAP": "828", "TOPLAM_ISY": 332.0, "TOPLAM_KON": 3732.0, "TOPLAM_KIS": 16524.0 }, "geometry": { "type": "Point", "coordinates": [ 28.962409999709092, 41.078940000262698 ] } },
{ "type": "Feature", "properties": { "OBJECTID": 6800, "ILCE": "KAĞITHANE", "MAHALLE": "MERKEZ", "NAME": "FERMAN BÜFE", "TOPLAM_YAP": "416", "TOPLAM_ISY": 143.0, "TOPLAM_KON": 2104.0, "TOPLAM_KIS": 12618.0 }, "geometry": { "type": "Point", "coordinates": [ 28.973106000272466, 41.088310000115349 ] } },
{ "type": "Feature", "properties": { "OBJECTID": 6801, "ILCE": "SULTANBEYLİ", "MAHALLE": "HAMİDİYE", "NAME": "HAMİDİYE BÜFE", "TOPLAM_YAP": "706", "TOPLAM_ISY": 207.0, "TOPLAM_KON": 1669.0, "TOPLAM_KIS": 7841.0 }, "geometry": { "type": "Point", "coordinates": [ 29.287626000075125, 40.952574000365722 ] } },
{ "type": "Feature", "properties": { "OBJECTID": 6802, "ILCE": "SANCAKTEPE", "MAHALLE": "MERVE", "NAME": "MERVE BÜFE", "TOPLAM_YAP": "216", "TOPLAM_ISY": 66.0, "TOPLAM_KON": 415.0, "TOPLAM_KIS": 3631.0 }, "geometry": { "type": "Point", "coordinates": [ 29.254724000410231, 41.005431000135005 ] } },
{ "type": "Feature", "properties": { "OBJECTID": 6803, "ILCE": "ARNAVUTKÖY", "MAHALLE": "MERKEZ", "NAME": "ARNAVUTKÖY HASTANE BÜFE", "TOPLAM_YAP": "93", "TOPLAM_ISY": 44.0, "TOPLAM_KON": 277.0, "TOPLAM_KIS": 1353.0 }, "geometry": { "type": "Point", "coordinates": [ 28.746968000051208, 41.178353999853812 ] } },
{ "type": "Feature", "properties": { "OBJECTID": 6804, "ILCE": "KADIKÖY", "MAHALLE": "CADDEBOSTAN", "NAME": "CADDEBOSTAN BÜFE", "TOPLAM_YAP": "186", "TOPLAM_ISY": 399.0, "TOPLAM_KON": 1647.0, "TOPLAM_KIS": 4099.0 }, "geometry": { "type": "Point", "coordinates": [ 29.069203000040815, 40.966441999931611 ] } },
{ "type": "Feature", "properties": { "OBJECTID": 6805, "ILCE": "ZEYTİNBURNU", "MAHALLE": "KAZLIÇEŞME", "NAME": "KAZLIÇEŞME 1 BÜFE", "TOPLAM_YAP": "579", "TOPLAM_ISY": 123.0, "TOPLAM_KON": 2882.0, "TOPLAM_KIS": 12457.0 }, "geometry": { "type": "Point", "coordinates": [ 28.904569000466577, 40.985659999966458 ] } },
{ "type": "Feature", "properties": { "OBJECTID": 6806, "ILCE": "EYÜPSULTAN", "MAHALLE": "GÜZELTEPE", "NAME": "ÇOBANÇEŞME PARK BÜFE", "TOPLAM_YAP": "89", "TOPLAM_ISY": 9.0, "TOPLAM_KON": 356.0, "TOPLAM_KIS": 2119.0 }, "geometry": { "type": "Point", "coordinates": [ 28.953006000384679, 41.084190999881017 ] } },
{ "type": "Feature", "properties": { "OBJECTID": 6807, "ILCE": "KARTAL", "MAHALLE": "CEVİZLİ", "NAME": "CEVİZLİ BÜFE", "TOPLAM_YAP": "370", "TOPLAM_ISY": 139.0, "TOPLAM_KON": 1779.0, "TOPLAM_KIS": 7195.0 }, "geometry": { "type": "Point", "coordinates": [ 29.163232000532137, 40.915751999953379 ] } },
{ "type": "Feature", "properties": { "OBJECTID": 6808, "ILCE": "KÜÇÜKÇEKMECE", "MAHALLE": "FEVZİ ÇAKMAK", "NAME": "SEFAKÖY 2 BÜFE", "TOPLAM_YAP": "478", "TOPLAM_ISY": 282.0, "TOPLAM_KON": 2293.0, "TOPLAM_KIS": 6713.0 }, "geometry": { "type": "Point", "coordinates": [ 28.792124000557212, 41.007675000212728 ] } },
{ "type": "Feature", "properties": { "OBJECTID": 6809, "ILCE": "ESENYURT", "MAHALLE": "BARBAROS HAYRETTİN PAŞA", "NAME": "GÜZELYURT 3 BÜFE", "TOPLAM_YAP": "95", "TOPLAM_ISY": 96.0, "TOPLAM_KON": 2555.0, "TOPLAM_KIS": 10116.0 }, "geometry": { "type": "Point", "coordinates": [ 28.641928999797752, 41.018143000240762 ] } },
{ "type": "Feature", "properties": { "OBJECTID": 6810, "ILCE": "KÜÇÜKÇEKMECE", "MAHALLE": "ATAKENT", "NAME": "ATAKENT 3 BÜFE", "TOPLAM_YAP": "44", "TOPLAM_ISY": 2.0, "TOPLAM_KON": 1780.0, "TOPLAM_KIS": 7347.0 }, "geometry": { "type": "Point", "coordinates": [ 28.779949000002453, 41.038952000346889 ] } },
{ "type": "Feature", "properties": { "OBJECTID": 6811, "ILCE": "SULTANGAZİ", "MAHALLE": "UĞURMUMCU", "NAME": "UĞUR MUMCU 3 BÜFE", "TOPLAM_YAP": "997", "TOPLAM_ISY": 843.0, "TOPLAM_KON": 4168.0, "TOPLAM_KIS": 16094.0 }, "geometry": { "type": "Point", "coordinates": [ 28.864485999703167, 41.101924000038444 ] } },
{ "type": "Feature", "properties": { "OBJECTID": 6812, "ILCE": "ATAŞEHİR", "MAHALLE": "YENİŞEHİR", "NAME": "BARAJYOLU BÜFE", "TOPLAM_YAP": "79", "TOPLAM_ISY": 39.0, "TOPLAM_KON": 1212.0, "TOPLAM_KIS": 3735.0 }, "geometry": { "type": "Point", "coordinates": [ 29.142699000379228, 40.993879000074045 ] } },
{ "type": "Feature", "properties": { "OBJECTID": 6813, "ILCE": "BAKIRKÖY", "MAHALLE": "KARTALTEPE", "NAME": "İNCİRLİ METRO BÜFE", "TOPLAM_YAP": "131", "TOPLAM_ISY": 137.0, "TOPLAM_KON": 537.0, "TOPLAM_KIS": 3278.0 }, "geometry": { "type": "Point", "coordinates": [ 28.874276000523089, 40.996714000408218 ] } },
{ "type": "Feature", "properties": { "OBJECTID": 6814, "ILCE": "BAĞCILAR", "MAHALLE": "ÇINAR", "NAME": "NACİ EKŞİ BÜFE", "TOPLAM_YAP": "515", "TOPLAM_ISY": 36.0, "TOPLAM_KON": 2156.0, "TOPLAM_KIS": 14734.0 }, "geometry": { "type": "Point", "coordinates": [ 28.864551000466154, 41.033795000139882 ] } },
{ "type": "Feature", "properties": { "OBJECTID": 6815, "ILCE": "BAĞCILAR", "MAHALLE": "FATİH", "NAME": "MALAZGİRT OKUL BÜFE", "TOPLAM_YAP": "817", "TOPLAM_ISY": 40.0, "TOPLAM_KON": 3062.0, "TOPLAM_KIS": 15577.0 }, "geometry": { "type": "Point", "coordinates": [ 28.839305000527006, 41.052598999830472 ] } },
{ "type": "Feature", "properties": { "OBJECTID": 6816, "ILCE": "BAĞCILAR", "MAHALLE": "MERKEZ", "NAME": "KURTDERELİ MEHMET OKUL BÜFE", "TOPLAM_YAP": "678", "TOPLAM_ISY": 74.0, "TOPLAM_KON": 2867.0, "TOPLAM_KIS": 17242.0 }, "geometry": { "type": "Point", "coordinates": [ 28.827883999778905, 41.040553999612612 ] } },
{ "type": "Feature", "properties": { "OBJECTID": 6817, "ILCE": "KÜÇÜKÇEKMECE", "MAHALLE": "ATAKENT", "NAME": "SOYAK BÜFE", "TOPLAM_YAP": "26", "TOPLAM_ISY": 0.0, "TOPLAM_KON": 724.0, "TOPLAM_KIS": 2645.0 }, "geometry": { "type": "Point", "coordinates": [ 28.785183999524474, 41.048877999859357 ] } },
{ "type": "Feature", "properties": { "OBJECTID": 6818, "ILCE": "ŞİŞLİ", "MAHALLE": "KUŞTEPE", "NAME": "KARKUYUSU BÜFE", "TOPLAM_YAP": "286", "TOPLAM_ISY": 534.0, "TOPLAM_KON": 1348.0, "TOPLAM_KIS": 3741.0 }, "geometry": { "type": "Point", "coordinates": [ 28.989725999926225, 41.067456000037872 ] } },
{ "type": "Feature", "properties": { "OBJECTID": 6819, "ILCE": "ÜMRANİYE", "MAHALLE": "İNKILAP", "NAME": "İNKILAP BÜFE", "TOPLAM_YAP": "300", "TOPLAM_ISY": 142.0, "TOPLAM_KON": 1088.0, "TOPLAM_KIS": 6974.0 }, "geometry": { "type": "Point", "coordinates": [ 29.109926000538223, 41.033772000204621 ] } },
{ "type": "Feature", "properties": { "OBJECTID": 6820, "ILCE": "PENDİK", "MAHALLE": "ESENLER", "NAME": "ESENLER BÜFE", "TOPLAM_YAP": "462", "TOPLAM_ISY": 147.0, "TOPLAM_KON": 1089.0, "TOPLAM_KIS": 9936.0 }, "geometry": { "type": "Point", "coordinates": [ 29.273038000166412, 40.887507000068936 ] } },
{ "type": "Feature", "properties": { "OBJECTID": 6821, "ILCE": "PENDİK", "MAHALLE": "GÜZELYALI", "NAME": "GÜZELYALI BÜFE", "TOPLAM_YAP": "444", "TOPLAM_ISY": 405.0, "TOPLAM_KON": 2177.0, "TOPLAM_KIS": 9242.0 }, "geometry": { "type": "Point", "coordinates": [ 29.280891999602826, 40.859686999590316 ] } },
{ "type": "Feature", "properties": { "OBJECTID": 6822, "ILCE": "PENDİK", "MAHALLE": "YAYALAR", "NAME": "YAYALAR BÜFE", "TOPLAM_YAP": "28", "TOPLAM_ISY": 6.0, "TOPLAM_KON": 464.0, "TOPLAM_KIS": 1380.0 }, "geometry": { "type": "Point", "coordinates": [ 29.263870999565459, 40.90585400040225 ] } },
{ "type": "Feature", "properties": { "OBJECTID": 6823, "ILCE": "G.O.PAŞA", "MAHALLE": "KARADENİZ", "NAME": "KARADENİZ 3 BÜFE", "TOPLAM_YAP": "847", "TOPLAM_ISY": 582.0, "TOPLAM_KON": 5071.0, "TOPLAM_KIS": 18785.0 }, "geometry": { "type": "Point", "coordinates": [ 28.881562999535412, 41.085850000106461 ] } },
{ "type": "Feature", "properties": { "OBJECTID": 6824, "ILCE": "BAŞAKŞEHİR", "MAHALLE": "BAŞAK", "NAME": "BAŞAKŞEHİR 4 BÜFE", "TOPLAM_YAP": "90", "TOPLAM_ISY": 5.0, "TOPLAM_KON": 620.0, "TOPLAM_KIS": 5858.0 }, "geometry": { "type": "Point", "coordinates": [ 28.809998999414546, 41.111570000003958 ] } },
{ "type": "Feature", "properties": { "OBJECTID": 6825, "ILCE": "KÜÇÜKÇEKMECE", "MAHALLE": "KANARYA", "NAME": "KANARYA CAMİ BÜFE", "TOPLAM_YAP": "902", "TOPLAM_ISY": 469.0, "TOPLAM_KON": 4494.0, "TOPLAM_KIS": 23999.0 }, "geometry": { "type": "Point", "coordinates": [ 28.780168999434395, 41.011320000328467 ] } },
{ "type": "Feature", "properties": { "OBJECTID": 6826, "ILCE": "SULTANGAZİ", "MAHALLE": "ZÜBEYDEHANIM", "NAME": "GAZİ 1 BÜFE", "TOPLAM_YAP": "846", "TOPLAM_ISY": 461.0, "TOPLAM_KON": 4677.0, "TOPLAM_KIS": 19590.0 }, "geometry": { "type": "Point", "coordinates": [ 28.90604799973514, 41.100522999616508 ] } },
{ "type": "Feature", "properties": { "OBJECTID": 6827, "ILCE": "FATİH", "MAHALLE": "KOCAMUSTAFAPAŞA", "NAME": "YEDİKULE BÜFE", "TOPLAM_YAP": "968", "TOPLAM_ISY": 244.0, "TOPLAM_KON": 4902.0, "TOPLAM_KIS": 12363.0 }, "geometry": { "type": "Point", "coordinates": [ 28.930540999682407, 40.998798999681554 ] } },
{ "type": "Feature", "properties": { "OBJECTID": 6828, "ILCE": "ESENLER", "MAHALLE": "MENDERES", "NAME": "MENDERES 2 BÜFE", "TOPLAM_YAP": "881", "TOPLAM_ISY": 891.0, "TOPLAM_KON": 6234.0, "TOPLAM_KIS": 26250.0 }, "geometry": { "type": "Point", "coordinates": [ 28.875423999536938, 41.040394999725102 ] } },
{ "type": "Feature", "properties": { "OBJECTID": 6829, "ILCE": "ÇEKMEKÖY", "MAHALLE": "MİMAR SİNAN", "NAME": "ÇEKMEKÖY MİMAR SİNAN BÜFE", "TOPLAM_YAP": "434", "TOPLAM_ISY": 219.0, "TOPLAM_KON": 1837.0, "TOPLAM_KIS": 7904.0 }, "geometry": { "type": "Point", "coordinates": [ 29.181705999572745, 41.032004999805693 ] } },
{ "type": "Feature", "properties": { "OBJECTID": 6830, "ILCE": "AVCILAR", "MAHALLE": "MUSTAFA KEMAL PAŞA", "NAME": "AVCILAR PARK BÜFE", "TOPLAM_YAP": "547", "TOPLAM_ISY": 510.0, "TOPLAM_KON": 2599.0, "TOPLAM_KIS": 13051.0 }, "geometry": { "type": "Point", "coordinates": [ 28.706998000119455, 41.003370000300144 ] } },
{ "type": "Feature", "properties": { "OBJECTID": 6831, "ILCE": "ARNAVUTKÖY", "MAHALLE": "HASTANE", "NAME": "HADIMKÖY 2 BÜFE", "TOPLAM_YAP": "214", "TOPLAM_ISY": 118.0, "TOPLAM_KON": 752.0, "TOPLAM_KIS": 4264.0 }, "geometry": { "type": "Point", "coordinates": [ 28.616819999426063, 41.157521999808282 ] } },
{ "type": "Feature", "properties": { "OBJECTID": 6832, "ILCE": "KADIKÖY", "MAHALLE": "CAFERAĞA", "NAME": "CAFERAĞA BÜFE", "TOPLAM_YAP": "999", "TOPLAM_ISY": 1549.0, "TOPLAM_KON": 6134.0, "TOPLAM_KIS": 10575.0 }, "geometry": { "type": "Point", "coordinates": [ 29.025518999975674, 40.986342999583243 ] } },
{ "type": "Feature", "properties": { "OBJECTID": 6833, "ILCE": "KADIKÖY", "MAHALLE": "MERDİVENKÖY", "NAME": "MERDİVENKÖY BÜFE", "TOPLAM_YAP": "141", "TOPLAM_ISY": 265.0, "TOPLAM_KON": 1903.0, "TOPLAM_KIS": 5018.0 }, "geometry": { "type": "Point", "coordinates": [ 29.061873999651784, 40.983769999623192 ] } },
{ "type": "Feature", "properties": { "OBJECTID": 6834, "ILCE": "ESENYURT", "MAHALLE": "ZAFER", "NAME": "DOĞAN ARASLI 1 BÜFE", "TOPLAM_YAP": null, "TOPLAM_ISY": null, "TOPLAM_KON": null, "TOPLAM_KIS": null }, "geometry": { "type": "Point", "coordinates": [ 28.690162999484947, 41.017390000402713 ] } },
{ "type": "Feature", "properties": { "OBJECTID": 6835, "ILCE": "SANCAKTEPE", "MAHALLE": "ATATÜRK", "NAME": "SARIEVLER BÜFE", "TOPLAM_YAP": "556", "TOPLAM_ISY": 140.0, "TOPLAM_KON": 1644.0, "TOPLAM_KIS": 11520.0 }, "geometry": { "type": "Point", "coordinates": [ 29.229122000542198, 41.015352000386876 ] } },
{ "type": "Feature", "properties": { "OBJECTID": 6836, "ILCE": "ATAŞEHİR", "MAHALLE": "KÜÇÜKBAKKALKÖY", "NAME": "KÜÇÜKBAKKALKÖY MERKEZ 2 BÜFE", "TOPLAM_YAP": "98", "TOPLAM_ISY": 29.0, "TOPLAM_KON": 531.0, "TOPLAM_KIS": 1813.0 }, "geometry": { "type": "Point", "coordinates": [ 29.114925000289333, 40.983291999733119 ] } },
{ "type": "Feature", "properties": { "OBJECTID": 6837, "ILCE": "KADIKÖY", "MAHALLE": "ACIBADEM", "NAME": "ACIBADEM BÜFE", "TOPLAM_YAP": "158", "TOPLAM_ISY": 136.0, "TOPLAM_KON": 1679.0, "TOPLAM_KIS": 4616.0 }, "geometry": { "type": "Point", "coordinates": [ 29.042753000148068, 41.003089999596568 ] } },
{ "type": "Feature", "properties": { "OBJECTID": 6980, "ILCE": "BAHÇELİEVLER", "MAHALLE": "ŞİRİNEVLER", "NAME": "TEMEL BÜFE", "TOPLAM_YAP": "660", "TOPLAM_ISY": 1179.0, "TOPLAM_KON": 5255.0, "TOPLAM_KIS": 17655.0 }, "geometry": { "type": "Point", "coordinates": [ 28.850126999586951, 40.996772000089358 ] } },
{ "type": "Feature", "properties": { "OBJECTID": 6981, "ILCE": "BAHÇELİEVLER", "MAHALLE": "KOCASİNAN", "NAME": "KOCASİNAN PARK BÜFE", "TOPLAM_YAP": "689", "TOPLAM_ISY": 1833.0, "TOPLAM_KON": 5815.0, "TOPLAM_KIS": 17927.0 }, "geometry": { "type": "Point", "coordinates": [ 28.846449999709673, 40.994746000356088 ] } },
{ "type": "Feature", "properties": { "OBJECTID": 6982, "ILCE": "GÜNGÖREN", "MAHALLE": "ABDURRAHMAN NAFİZ GÜRMAN", "NAME": "MERTER 3 BÜFE", "TOPLAM_YAP": "130", "TOPLAM_ISY": 212.0, "TOPLAM_KON": 544.0, "TOPLAM_KIS": 5079.0 }, "geometry": { "type": "Point", "coordinates": [ 28.887083999423478, 41.008584000215123 ] } },
{ "type": "Feature", "properties": { "OBJECTID": 6983, "ILCE": "BAHÇELİEVLER", "MAHALLE": "SİYAVUŞPAŞA", "NAME": "SİYAVUŞPAŞA BÜFE", "TOPLAM_YAP": "571", "TOPLAM_ISY": 868.0, "TOPLAM_KON": 4592.0, "TOPLAM_KIS": 17029.0 }, "geometry": { "type": "Point", "coordinates": [ 28.852061999859494, 40.999969999799184 ] } },
{ "type": "Feature", "properties": { "OBJECTID": 6984, "ILCE": "FATİH", "MAHALLE": "ŞEHREMİNİ", "NAME": "ODABAŞI BÜFE", "TOPLAM_YAP": "905", "TOPLAM_ISY": 752.0, "TOPLAM_KON": 5817.0, "TOPLAM_KIS": 12879.0 }, "geometry": { "type": "Point", "coordinates": [ 28.932627999887035, 41.013742999560741 ] } },
{ "type": "Feature", "properties": { "OBJECTID": 6985, "ILCE": "ZEYTİNBURNU", "MAHALLE": "NURİPAŞA", "NAME": "KUBBELİ BÜFE", "TOPLAM_YAP": "1111", "TOPLAM_ISY": 259.0, "TOPLAM_KON": 5811.0, "TOPLAM_KIS": 29319.0 }, "geometry": { "type": "Point", "coordinates": [ 28.90058800010036, 40.988856999981721 ] } },
{ "type": "Feature", "properties": { "OBJECTID": 6986, "ILCE": "FATİH", "MAHALLE": "YEDİKULE", "NAME": "YEDİKULE YUSUF BÜFE", "TOPLAM_YAP": "558", "TOPLAM_ISY": 113.0, "TOPLAM_KON": 2352.0, "TOPLAM_KIS": 6338.0 }, "geometry": { "type": "Point", "coordinates": [ 28.924403999967513, 40.993974999946708 ] } },
{ "type": "Feature", "properties": { "OBJECTID": 6987, "ILCE": "FATİH", "MAHALLE": "YEDİKULE", "NAME": "HACI PİRİ BÜFE", "TOPLAM_YAP": "746", "TOPLAM_ISY": 106.0, "TOPLAM_KON": 5053.0, "TOPLAM_KIS": 14643.0 }, "geometry": { "type": "Point", "coordinates": [ 28.92394199963849, 41.000131999993201 ] } },
{ "type": "Feature", "properties": { "OBJECTID": 6988, "ILCE": "EYÜPSULTAN", "MAHALLE": "SİLAHTARAĞA", "NAME": "SİLAHTARAĞA BÜFE", "TOPLAM_YAP": "531", "TOPLAM_ISY": 89.0, "TOPLAM_KON": 1345.0, "TOPLAM_KIS": 7275.0 }, "geometry": { "type": "Point", "coordinates": [ 28.941376999845737, 41.064044999889731 ] } },
{ "type": "Feature", "properties": { "OBJECTID": 6989, "ILCE": "EYÜPSULTAN", "MAHALLE": "İSLAMBEY", "NAME": "EYÜP MERKEZ BÜFE", "TOPLAM_YAP": "679", "TOPLAM_ISY": 186.0, "TOPLAM_KON": 2250.0, "TOPLAM_KIS": 7204.0 }, "geometry": { "type": "Point", "coordinates": [ 28.927473000366447, 41.040164999572546 ] } },
{ "type": "Feature", "properties": { "OBJECTID": 6990, "ILCE": "ÇEKMEKÖY", "MAHALLE": "SULTANÇİFTLİĞİ", "NAME": "TAŞDELEN 19 MAYIS BÜFE", "TOPLAM_YAP": "244", "TOPLAM_ISY": 85.0, "TOPLAM_KON": 884.0, "TOPLAM_KIS": 6832.0 }, "geometry": { "type": "Point", "coordinates": [ 29.22366200049364, 41.033093000139431 ] } },
{ "type": "Feature", "properties": { "OBJECTID": 6991, "ILCE": "FATİH", "MAHALLE": "CERRAHPAŞA", "NAME": "CERRAHPAŞA BÜFE", "TOPLAM_YAP": "563", "TOPLAM_ISY": 366.0, "TOPLAM_KON": 3110.0, "TOPLAM_KIS": 7525.0 }, "geometry": { "type": "Point", "coordinates": [ 28.940114000205838, 41.006559000184915 ] } },
{ "type": "Feature", "properties": { "OBJECTID": 6992, "ILCE": "KAĞITHANE", "MAHALLE": "ÇELİKTEPE", "NAME": "ÇELİKTEPE BÜFE", "TOPLAM_YAP": "1617", "TOPLAM_ISY": 1213.0, "TOPLAM_KON": 8843.0, "TOPLAM_KIS": 25333.0 }, "geometry": { "type": "Point", "coordinates": [ 29.000937999854983, 41.082999999638709 ] } },
{ "type": "Feature", "properties": { "OBJECTID": 6993, "ILCE": "BEYOĞLU", "MAHALLE": "HALICIOĞLU", "NAME": "ÇIKSALIN BÜFE", "TOPLAM_YAP": "567", "TOPLAM_ISY": 238.0, "TOPLAM_KON": 3669.0, "TOPLAM_KIS": 11906.0 }, "geometry": { "type": "Point", "coordinates": [ 28.950208000044693, 41.048679999834562 ] } },
{ "type": "Feature", "properties": { "OBJECTID": 6994, "ILCE": "ZEYTİNBURNU", "MAHALLE": "BEŞTELSİZ", "NAME": "SAMET BÜFE", "TOPLAM_YAP": "1019", "TOPLAM_ISY": 125.0, "TOPLAM_KON": 4530.0, "TOPLAM_KIS": 20725.0 }, "geometry": { "type": "Point", "coordinates": [ 28.90205000046981, 41.001530999916227 ] } },
{ "type": "Feature", "properties": { "OBJECTID": 6995, "ILCE": "ZEYTİNBURNU", "MAHALLE": "ÇIRPICI", "NAME": "MODABAĞ BÜFE", "TOPLAM_YAP": "1099", "TOPLAM_ISY": 138.0, "TOPLAM_KON": 5262.0, "TOPLAM_KIS": 26770.0 }, "geometry": { "type": "Point", "coordinates": [ 28.897528000563522, 41.000370000438778 ] } },
{ "type": "Feature", "properties": { "OBJECTID": 6996, "ILCE": "BAKIRKÖY", "MAHALLE": "ZUHURATBABA", "NAME": "DİKİLİTAŞ BÜFE", "TOPLAM_YAP": "298", "TOPLAM_ISY": 233.0, "TOPLAM_KON": 1206.0, "TOPLAM_KIS": 8009.0 }, "geometry": { "type": "Point", "coordinates": [ 28.869822999455284, 40.992132999885015 ] } },
{ "type": "Feature", "properties": { "OBJECTID": 6997, "ILCE": "G.O.PAŞA", "MAHALLE": "YENİDOĞAN", "NAME": "YENİDOĞAN BÜFE", "TOPLAM_YAP": "672", "TOPLAM_ISY": 506.0, "TOPLAM_KON": 3465.0, "TOPLAM_KIS": 14477.0 }, "geometry": { "type": "Point", "coordinates": [ 28.92219600017139, 41.057169000154396 ] } },
{ "type": "Feature", "properties": { "OBJECTID": 6998, "ILCE": "G.O.PAŞA", "MAHALLE": "BAĞLARBAŞI", "NAME": "ÇİĞDEM BÜFE", "TOPLAM_YAP": "1209", "TOPLAM_ISY": 641.0, "TOPLAM_KON": 6477.0, "TOPLAM_KIS": 25435.0 }, "geometry": { "type": "Point", "coordinates": [ 28.909885999520771, 41.063405000365897 ] } },
{ "type": "Feature", "properties": { "OBJECTID": 6999, "ILCE": "G.O.PAŞA", "MAHALLE": "BAĞLARBAŞI", "NAME": "ERTUĞRUL GAZİ CAMİ BÜFE", "TOPLAM_YAP": "482", "TOPLAM_ISY": 271.0, "TOPLAM_KON": 3450.0, "TOPLAM_KIS": 12472.0 }, "geometry": { "type": "Point", "coordinates": [ 28.915422000181824, 41.065000000349514 ] } },
{ "type": "Feature", "properties": { "OBJECTID": 7000, "ILCE": "EYÜPSULTAN", "MAHALLE": "RAMİ CUMA", "NAME": "RAMİ BÜFE", "TOPLAM_YAP": "543", "TOPLAM_ISY": 39.0, "TOPLAM_KON": 3709.0, "TOPLAM_KIS": 13839.0 }, "geometry": { "type": "Point", "coordinates": [ 28.92074500012825, 41.048380000424181 ] } },
{ "type": "Feature", "properties": { "OBJECTID": 7001, "ILCE": "BAHÇELİEVLER", "MAHALLE": "KOCASİNAN", "NAME": "BAĞLAR SELGİZ BÜFE", "TOPLAM_YAP": "359", "TOPLAM_ISY": 355.0, "TOPLAM_KON": 1931.0, "TOPLAM_KIS": 10561.0 }, "geometry": { "type": "Point", "coordinates": [ 28.845291999602988, 41.005832000159458 ] } },
{ "type": "Feature", "properties": { "OBJECTID": 7002, "ILCE": "FATİH", "MAHALLE": "ŞEHREMİNİ", "NAME": "ŞEHREMİNİ İÇ BÜFE", "TOPLAM_YAP": "1096", "TOPLAM_ISY": 535.0, "TOPLAM_KON": 6867.0, "TOPLAM_KIS": 15577.0 }, "geometry": { "type": "Point", "coordinates": [ 28.928105000148157, 41.014770999742559 ] } },
{ "type": "Feature", "properties": { "OBJECTID": 7003, "ILCE": "BAHÇELİEVLER", "MAHALLE": "ZAFER", "NAME": "AKELİF BÜFE", "TOPLAM_YAP": "1076", "TOPLAM_ISY": 801.0, "TOPLAM_KON": 4525.0, "TOPLAM_KIS": 27058.0 }, "geometry": { "type": "Point", "coordinates": [ 28.833222000504087, 41.010974999765502 ] } },
{ "type": "Feature", "properties": { "OBJECTID": 7004, "ILCE": "ÜSKÜDAR", "MAHALLE": "CUMHURİYET", "NAME": "NUROL BÜFE", "TOPLAM_YAP": "818", "TOPLAM_ISY": 44.0, "TOPLAM_KON": 1088.0, "TOPLAM_KIS": 14743.0 }, "geometry": { "type": "Point", "coordinates": [ 29.080838999755478, 41.008368000187204 ] } },
{ "type": "Feature", "properties": { "OBJECTID": 7005, "ILCE": "SANCAKTEPE", "MAHALLE": "YUNUS EMRE", "NAME": "SANCAKTEPE VEYSEL KARANİ BÜFE", "TOPLAM_YAP": "707", "TOPLAM_ISY": 130.0, "TOPLAM_KON": 1429.0, "TOPLAM_KIS": 11509.0 }, "geometry": { "type": "Point", "coordinates": [ 29.258588999863125, 41.017589999911685 ] } },
{ "type": "Feature", "properties": { "OBJECTID": 7006, "ILCE": "ÇEKMEKÖY", "MAHALLE": "SOĞUKPINAR", "NAME": "SOĞUKPINAR BÜFE", "TOPLAM_YAP": "663", "TOPLAM_ISY": 219.0, "TOPLAM_KON": 1933.0, "TOPLAM_KIS": 12978.0 }, "geometry": { "type": "Point", "coordinates": [ 29.230795000315709, 41.021522999807758 ] } },
{ "type": "Feature", "properties": { "OBJECTID": 7007, "ILCE": "KARTAL", "MAHALLE": "YAKACIK YENİ", "NAME": "ÇEŞME BÜFE", "TOPLAM_YAP": "334", "TOPLAM_ISY": 42.0, "TOPLAM_KON": 1381.0, "TOPLAM_KIS": 6648.0 }, "geometry": { "type": "Point", "coordinates": [ 29.221882999801341, 40.924281999970155 ] } },
{ "type": "Feature", "properties": { "OBJECTID": 7008, "ILCE": "ÜSKÜDAR", "MAHALLE": "ÇENGELKÖY", "NAME": "ÇENGELKÖY BÜFE", "TOPLAM_YAP": "198", "TOPLAM_ISY": 1.0, "TOPLAM_KON": 0.0, "TOPLAM_KIS": 1478.0 }, "geometry": { "type": "Point", "coordinates": [ 29.054244999783808, 41.049770000132 ] } },
{ "type": "Feature", "properties": { "OBJECTID": 7009, "ILCE": "PENDİK", "MAHALLE": "DOĞU", "NAME": "PENDİK MOSTAR BÜFE", "TOPLAM_YAP": "241", "TOPLAM_ISY": 114.0, "TOPLAM_KON": 1496.0, "TOPLAM_KIS": 5722.0 }, "geometry": { "type": "Point", "coordinates": [ 29.241439999872963, 40.880610000426984 ] } },
{ "type": "Feature", "properties": { "OBJECTID": 7010, "ILCE": "KARTAL", "MAHALLE": "KARLIKTEPE", "NAME": "ESEN BÜFE", "TOPLAM_YAP": "372", "TOPLAM_ISY": 256.0, "TOPLAM_KON": 1882.0, "TOPLAM_KIS": 7620.0 }, "geometry": { "type": "Point", "coordinates": [ 29.1849290005147, 40.899914000211929 ] } },
{ "type": "Feature", "properties": { "OBJECTID": 7011, "ILCE": "PENDİK", "MAHALLE": "KURTKÖY", "NAME": "KURTKÖY BÜFE", "TOPLAM_YAP": "203", "TOPLAM_ISY": 191.0, "TOPLAM_KON": 589.0, "TOPLAM_KIS": 4299.0 }, "geometry": { "type": "Point", "coordinates": [ 29.299308000289134, 40.913967999599507 ] } },
{ "type": "Feature", "properties": { "OBJECTID": 7012, "ILCE": "KADIKÖY", "MAHALLE": "MERDİVENKÖY", "NAME": "FİKİRTEPE ALTINSU BÜFE", "TOPLAM_YAP": "143", "TOPLAM_ISY": 214.0, "TOPLAM_KON": 2009.0, "TOPLAM_KIS": 6231.0 }, "geometry": { "type": "Point", "coordinates": [ 29.064994999972651, 40.988592999980597 ] } },
{ "type": "Feature", "properties": { "OBJECTID": 7013, "ILCE": "ATAŞEHİR", "MAHALLE": "YENİŞEHİR", "NAME": "YEŞİLYAMAÇ BÜFE", "TOPLAM_YAP": "7", "TOPLAM_ISY": 3.0, "TOPLAM_KON": 148.0, "TOPLAM_KIS": 1427.0 }, "geometry": { "type": "Point", "coordinates": [ 29.147438999408628, 40.990015999902731 ] } },
{ "type": "Feature", "properties": { "OBJECTID": 6926, "ILCE": "ATAŞEHİR", "MAHALLE": "FETİH", "NAME": "FETİH BÜFE", "TOPLAM_YAP": "520", "TOPLAM_ISY": 277.0, "TOPLAM_KON": 2211.0, "TOPLAM_KIS": 9709.0 }, "geometry": { "type": "Point", "coordinates": [ 29.079042000221769, 41.002269999896264 ] } },
{ "type": "Feature", "properties": { "OBJECTID": 6927, "ILCE": "ÜSKÜDAR", "MAHALLE": "FERAH", "NAME": "ÜSKÜDAR GÜZELTEPE BÜFE", "TOPLAM_YAP": "311", "TOPLAM_ISY": 9.0, "TOPLAM_KON": 0.0, "TOPLAM_KIS": 5625.0 }, "geometry": { "type": "Point", "coordinates": [ 29.073230999671448, 41.033210999930958 ] } },
{ "type": "Feature", "properties": { "OBJECTID": 6928, "ILCE": "ÜSKÜDAR", "MAHALLE": "ÜNALAN", "NAME": "ÜNALAN MERKEZ BÜFE", "TOPLAM_YAP": "869", "TOPLAM_ISY": 0.0, "TOPLAM_KON": 0.0, "TOPLAM_KIS": 12925.0 }, "geometry": { "type": "Point", "coordinates": [ 29.064492999704086, 41.003305000218774 ] } },
{ "type": "Feature", "properties": { "OBJECTID": 6929, "ILCE": "PENDİK", "MAHALLE": "YENİŞEHİR", "NAME": "PENDİK BULVAR BÜFE", "TOPLAM_YAP": "37", "TOPLAM_ISY": 14.0, "TOPLAM_KON": 58.0, "TOPLAM_KIS": 1967.0 }, "geometry": { "type": "Point", "coordinates": [ 29.301542999752041, 40.941434000307311 ] } },
{ "type": "Feature", "properties": { "OBJECTID": 6930, "ILCE": "SULTANBEYLİ", "MAHALLE": "NECİP FAZIL", "NAME": "SULTANBEYLİ HİLAL BÜFE", "TOPLAM_YAP": "542", "TOPLAM_ISY": 113.0, "TOPLAM_KON": 1010.0, "TOPLAM_KIS": 6262.0 }, "geometry": { "type": "Point", "coordinates": [ 29.277959999899085, 40.940259000076828 ] } },
{ "type": "Feature", "properties": { "OBJECTID": 6931, "ILCE": "ÇEKMEKÖY", "MAHALLE": "AYDINLAR", "NAME": "DEMOKRASİ BÜFE", "TOPLAM_YAP": "728", "TOPLAM_ISY": 215.0, "TOPLAM_KON": 1775.0, "TOPLAM_KIS": 13077.0 }, "geometry": { "type": "Point", "coordinates": [ 29.222010000035684, 41.016350000158369 ] } },
{ "type": "Feature", "properties": { "OBJECTID": 6932, "ILCE": "SANCAKTEPE", "MAHALLE": "FATİH", "NAME": "ORTADAĞ BÜFE", "TOPLAM_YAP": "182", "TOPLAM_ISY": 53.0, "TOPLAM_KON": 380.0, "TOPLAM_KIS": 3046.0 }, "geometry": { "type": "Point", "coordinates": [ 29.214423999884776, 40.958551999666554 ] } },
{ "type": "Feature", "properties": { "OBJECTID": 6933, "ILCE": "BAYRAMPAŞA", "MAHALLE": "ALTINTEPSİ", "NAME": "ALTINTEPSİ 1 BÜFE", "TOPLAM_YAP": "1157", "TOPLAM_ISY": 650.0, "TOPLAM_KON": 4331.0, "TOPLAM_KIS": 16171.0 }, "geometry": { "type": "Point", "coordinates": [ 28.90303500042311, 41.040269999560103 ] } },
{ "type": "Feature", "properties": { "OBJECTID": 6934, "ILCE": "KAĞITHANE", "MAHALLE": "GÜLTEPE", "NAME": "GÜLTEPE BÜFE", "TOPLAM_YAP": "1609", "TOPLAM_ISY": 817.0, "TOPLAM_KON": 7025.0, "TOPLAM_KIS": 20368.0 }, "geometry": { "type": "Point", "coordinates": [ 28.994518999992795, 41.080168999627439 ] } },
{ "type": "Feature", "properties": { "OBJECTID": 6935, "ILCE": "KAĞITHANE", "MAHALLE": "SULTAN SELİM", "NAME": "SANAYİ 2 BÜFE", "TOPLAM_YAP": "1036", "TOPLAM_ISY": 1536.0, "TOPLAM_KON": 5776.0, "TOPLAM_KIS": 20251.0 }, "geometry": { "type": "Point", "coordinates": [ 28.998556000311986, 41.091448999593965 ] } },
{ "type": "Feature", "properties": { "OBJECTID": 6936, "ILCE": "ŞİŞLİ", "MAHALLE": "KAPTANPAŞA", "NAME": "SSK OKMEYDANI BÜFE", "TOPLAM_YAP": "59", "TOPLAM_ISY": 166.0, "TOPLAM_KON": 524.0, "TOPLAM_KIS": 1978.0 }, "geometry": { "type": "Point", "coordinates": [ 28.973530000402505, 41.065592999681471 ] } },
{ "type": "Feature", "properties": { "OBJECTID": 6937, "ILCE": "BAKIRKÖY", "MAHALLE": "OSMANİYE", "NAME": "OSMANİYE BÜFE", "TOPLAM_YAP": "395", "TOPLAM_ISY": 452.0, "TOPLAM_KON": 1847.0, "TOPLAM_KIS": 13274.0 }, "geometry": { "type": "Point", "coordinates": [ 28.880871000402422, 40.992259999566926 ] } },
{ "type": "Feature", "properties": { "OBJECTID": 6938, "ILCE": "G.O.PAŞA", "MAHALLE": "MERKEZ", "NAME": "YILDIZTABYA 1 BÜFE", "TOPLAM_YAP": "698", "TOPLAM_ISY": 294.0, "TOPLAM_KON": 3582.0, "TOPLAM_KIS": 13756.0 }, "geometry": { "type": "Point", "coordinates": [ 28.931674999635071, 41.065112999979718 ] } },
{ "type": "Feature", "properties": { "OBJECTID": 6939, "ILCE": "ESENLER", "MAHALLE": "NENEHATUN", "NAME": "DÖRTYOL BÜFE", "TOPLAM_YAP": "666", "TOPLAM_ISY": 917.0, "TOPLAM_KON": 4172.0, "TOPLAM_KIS": 16276.0 }, "geometry": { "type": "Point", "coordinates": [ 28.883158999714851, 41.036304000180159 ] } },
{ "type": "Feature", "properties": { "OBJECTID": 6940, "ILCE": "ESENLER", "MAHALLE": "DAVUTPAŞA", "NAME": "TOLGA BÜFE", "TOPLAM_YAP": "926", "TOPLAM_ISY": 696.0, "TOPLAM_KON": 4411.0, "TOPLAM_KIS": 16930.0 }, "geometry": { "type": "Point", "coordinates": [ 28.893945000004909, 41.033463000365245 ] } },
{ "type": "Feature", "properties": { "OBJECTID": 6941, "ILCE": "BAYRAMPAŞA", "MAHALLE": "KARTALTEPE", "NAME": "KARTALTEPE OKUL BÜFE", "TOPLAM_YAP": "1036", "TOPLAM_ISY": 597.0, "TOPLAM_KON": 4148.0, "TOPLAM_KIS": 16304.0 }, "geometry": { "type": "Point", "coordinates": [ 28.904208999639259, 41.056549000339167 ] } },
{ "type": "Feature", "properties": { "OBJECTID": 6942, "ILCE": "BAYRAMPAŞA", "MAHALLE": "CEVATPAŞA", "NAME": "CEVATPAŞA 1 BÜFE", "TOPLAM_YAP": "815", "TOPLAM_ISY": 695.0, "TOPLAM_KON": 3646.0, "TOPLAM_KIS": 13524.0 }, "geometry": { "type": "Point", "coordinates": [ 28.885070999642867, 41.071671000104452 ] } },
{ "type": "Feature", "properties": { "OBJECTID": 6943, "ILCE": "BEŞİKTAŞ", "MAHALLE": "NİSBETİYE", "NAME": "BOĞAZİÇİ BÜFE", "TOPLAM_YAP": "486", "TOPLAM_ISY": 205.0, "TOPLAM_KON": 1891.0, "TOPLAM_KIS": 3956.0 }, "geometry": { "type": "Point", "coordinates": [ 29.046716999537917, 41.085334999893583 ] } },
{ "type": "Feature", "properties": { "OBJECTID": 6944, "ILCE": "FATİH", "MAHALLE": "ZEYREK", "NAME": "GELENBEVİ BÜFE", "TOPLAM_YAP": "1281", "TOPLAM_ISY": 260.0, "TOPLAM_KON": 6546.0, "TOPLAM_KIS": 22480.0 }, "geometry": { "type": "Point", "coordinates": [ 28.953507999645289, 41.022102000381196 ] } },
{ "type": "Feature", "properties": { "OBJECTID": 6945, "ILCE": "FATİH", "MAHALLE": "RÜSTEMPAŞA", "NAME": "EMİNÖNÜ MEYDAN BÜFE", "TOPLAM_YAP": "17", "TOPLAM_ISY": 428.0, "TOPLAM_KON": 0.0, "TOPLAM_KIS": 37.0 }, "geometry": { "type": "Point", "coordinates": [ 28.970832000045874, 41.018300000343849 ] } },
{ "type": "Feature", "properties": { "OBJECTID": 6946, "ILCE": "ZEYTİNBURNU", "MAHALLE": "TELSİZ", "NAME": "SEYİD NİZAM 1 BÜFE", "TOPLAM_YAP": "521", "TOPLAM_ISY": 114.0, "TOPLAM_KON": 2980.0, "TOPLAM_KIS": 13159.0 }, "geometry": { "type": "Point", "coordinates": [ 28.909389000346536, 41.006279000341131 ] } },
{ "type": "Feature", "properties": { "OBJECTID": 6947, "ILCE": "FATİH", "MAHALLE": "ATİKALİ", "NAME": "ÇARŞAMBA DURAK BÜFE", "TOPLAM_YAP": "969", "TOPLAM_ISY": 210.0, "TOPLAM_KON": 5673.0, "TOPLAM_KIS": 17098.0 }, "geometry": { "type": "Point", "coordinates": [ 28.948345000481147, 41.025010999572942 ] } },
{ "type": "Feature", "properties": { "OBJECTID": 6948, "ILCE": "FATİH", "MAHALLE": "SÜLEYMANİYE", "NAME": "VEZNECİLER BÜFE", "TOPLAM_YAP": "66", "TOPLAM_ISY": 271.0, "TOPLAM_KON": 102.0, "TOPLAM_KIS": 464.0 }, "geometry": { "type": "Point", "coordinates": [ 28.961230999736848, 41.011073000114834 ] } },
{ "type": "Feature", "properties": { "OBJECTID": 6949, "ILCE": "FATİH", "MAHALLE": "NİŞANCA", "NAME": "TÜRKELİ BÜFE", "TOPLAM_YAP": "782", "TOPLAM_ISY": 1061.0, "TOPLAM_KON": 3455.0, "TOPLAM_KIS": 7359.0 }, "geometry": { "type": "Point", "coordinates": [ 28.959762000486858, 41.004862000295262 ] } },
{ "type": "Feature", "properties": { "OBJECTID": 6950, "ILCE": "FATİH", "MAHALLE": "DERVİŞ ALİ", "NAME": "CAMCI YOKUŞU BÜFE", "TOPLAM_YAP": "1134", "TOPLAM_ISY": 447.0, "TOPLAM_KON": 6440.0, "TOPLAM_KIS": 19649.0 }, "geometry": { "type": "Point", "coordinates": [ 28.942717999899504, 41.024887000166899 ] } },
{ "type": "Feature", "properties": { "OBJECTID": 6951, "ILCE": "BAHÇELİEVLER", "MAHALLE": "KOCASİNAN", "NAME": "MAHMUTBEY YOLU BÜFE", "TOPLAM_YAP": "367", "TOPLAM_ISY": 428.0, "TOPLAM_KON": 2254.0, "TOPLAM_KIS": 11871.0 }, "geometry": { "type": "Point", "coordinates": [ 28.841780999771139, 41.017666999878273 ] } },
{ "type": "Feature", "properties": { "OBJECTID": 6952, "ILCE": "BAHÇELİEVLER", "MAHALLE": "ZAFER", "NAME": "YENİBOSNA BÜFE", "TOPLAM_YAP": "982", "TOPLAM_ISY": 1191.0, "TOPLAM_KON": 5312.0, "TOPLAM_KIS": 25333.0 }, "geometry": { "type": "Point", "coordinates": [ 28.834473999780123, 40.999403000368609 ] } },
{ "type": "Feature", "properties": { "OBJECTID": 6953, "ILCE": "GÜNGÖREN", "MAHALLE": "ABDURRAHMAN NAFİZ GÜRMAN", "NAME": "MERTER METRO BÜFE", "TOPLAM_YAP": "38", "TOPLAM_ISY": 778.0, "TOPLAM_KON": 130.0, "TOPLAM_KIS": 2018.0 }, "geometry": { "type": "Point", "coordinates": [ 28.896412000387411, 41.007430000132999 ] } },
{ "type": "Feature", "properties": { "OBJECTID": 6954, "ILCE": "BAHÇELİEVLER", "MAHALLE": "ÇOBANÇEŞME", "NAME": "BAHÇELİEVLER MASLAK ÇEŞME BÜFE", "TOPLAM_YAP": "344", "TOPLAM_ISY": 270.0, "TOPLAM_KON": 1906.0, "TOPLAM_KIS": 9641.0 }, "geometry": { "type": "Point", "coordinates": [ 28.825678999577274, 41.000820000430863 ] } },
{ "type": "Feature", "properties": { "OBJECTID": 6955, "ILCE": "FATİH", "MAHALLE": "KOCAMUSTAFAPAŞA", "NAME": "KOCA MUSTAFA PAŞA BÜFE", "TOPLAM_YAP": "1113", "TOPLAM_ISY": 721.0, "TOPLAM_KON": 7051.0, "TOPLAM_KIS": 17547.0 }, "geometry": { "type": "Point", "coordinates": [ 28.931401999606589, 41.004604999959227 ] } },
{ "type": "Feature", "properties": { "OBJECTID": 6956, "ILCE": "BAHÇELİEVLER", "MAHALLE": "HÜRRİYET", "NAME": "KAYA BÜFE", "TOPLAM_YAP": "876", "TOPLAM_ISY": 1180.0, "TOPLAM_KON": 5956.0, "TOPLAM_KIS": 26200.0 }, "geometry": { "type": "Point", "coordinates": [ 28.838578000224185, 40.9958650001508 ] } },
{ "type": "Feature", "properties": { "OBJECTID": 6957, "ILCE": "BEYOĞLU", "MAHALLE": "PİYALEPAŞA", "NAME": "PİYALEPAŞA BÜFE", "TOPLAM_YAP": "1312", "TOPLAM_ISY": 1233.0, "TOPLAM_KON": 5448.0, "TOPLAM_KIS": 18099.0 }, "geometry": { "type": "Point", "coordinates": [ 28.963788999672193, 41.049028999596601 ] } },
{ "type": "Feature", "properties": { "OBJECTID": 6958, "ILCE": "PENDİK", "MAHALLE": "ÇAMÇEŞME", "NAME": "ÇAMÇEŞME BÜFE", "TOPLAM_YAP": "514", "TOPLAM_ISY": 252.0, "TOPLAM_KON": 1969.0, "TOPLAM_KIS": 12774.0 }, "geometry": { "type": "Point", "coordinates": [ 29.272706000300957, 40.881274000412219 ] } },
{ "type": "Feature", "properties": { "OBJECTID": 6959, "ILCE": "SANCAKTEPE", "MAHALLE": "ABDURRAHMANGAZİ", "NAME": "HORON BÜFE", "TOPLAM_YAP": "331", "TOPLAM_ISY": 56.0, "TOPLAM_KON": 679.0, "TOPLAM_KIS": 5604.0 }, "geometry": { "type": "Point", "coordinates": [ 29.222158999914758, 41.000689000290592 ] } },
{ "type": "Feature", "properties": { "OBJECTID": 6960, "ILCE": "KARTAL", "MAHALLE": "SOĞANLIK", "NAME": "SOĞANLIK METRO BÜFE", "TOPLAM_YAP": "93", "TOPLAM_ISY": 80.0, "TOPLAM_KON": 838.0, "TOPLAM_KIS": 2235.0 }, "geometry": { "type": "Point", "coordinates": [ 29.193604999704661, 40.912651000006157 ] } },
{ "type": "Feature", "properties": { "OBJECTID": 6961, "ILCE": "BAYRAMPAŞA", "MAHALLE": "ALTINTEPSİ", "NAME": "ALTINTEPSİ 2 BÜFE", "TOPLAM_YAP": "1313", "TOPLAM_ISY": 857.0, "TOPLAM_KON": 4854.0, "TOPLAM_KIS": 18275.0 }, "geometry": { "type": "Point", "coordinates": [ 28.900003999914684, 41.035560999608919 ] } },
{ "type": "Feature", "properties": { "OBJECTID": 6962, "ILCE": "BAYRAMPAŞA", "MAHALLE": "İSMETPAŞA", "NAME": "SAĞMALCILAR BÜFE", "TOPLAM_YAP": "781", "TOPLAM_ISY": 601.0, "TOPLAM_KON": 2736.0, "TOPLAM_KIS": 9798.0 }, "geometry": { "type": "Point", "coordinates": [ 28.907309999928113, 41.041540999984811 ] } },
{ "type": "Feature", "properties": { "OBJECTID": 6963, "ILCE": "FATİH", "MAHALLE": "KARAGÜMRÜK", "NAME": "KARAGÜMRÜK MEYDAN BÜFE", "TOPLAM_YAP": "1108", "TOPLAM_ISY": 635.0, "TOPLAM_KON": 6304.0, "TOPLAM_KIS": 18183.0 }, "geometry": { "type": "Point", "coordinates": [ 28.939997999766895, 41.024889000158225 ] } },
{ "type": "Feature", "properties": { "OBJECTID": 6964, "ILCE": "KAĞITHANE", "MAHALLE": "YAHYA KEMAL", "NAME": "YAHYA KEMAL BÜFE", "TOPLAM_YAP": "848", "TOPLAM_ISY": 344.0, "TOPLAM_KON": 3933.0, "TOPLAM_KIS": 12573.0 }, "geometry": { "type": "Point", "coordinates": [ 28.987610000005152, 41.085066999810373 ] } },
{ "type": "Feature", "properties": { "OBJECTID": 6965, "ILCE": "BAĞCILAR", "MAHALLE": "YENİMAHALLE", "NAME": "KİRAZLI BÜFE", "TOPLAM_YAP": "896", "TOPLAM_ISY": 45.0, "TOPLAM_KON": 3411.0, "TOPLAM_KIS": 16071.0 }, "geometry": { "type": "Point", "coordinates": [ 28.845523000013504, 41.043363999873641 ] } },
{ "type": "Feature", "properties": { "OBJECTID": 6966, "ILCE": "G.O.PAŞA", "MAHALLE": "PAZARİÇİ", "NAME": "PİYERLOTİ BÜFE", "TOPLAM_YAP": "869", "TOPLAM_ISY": 455.0, "TOPLAM_KON": 4048.0, "TOPLAM_KIS": 14450.0 }, "geometry": { "type": "Point", "coordinates": [ 28.933104999856315, 41.057705000396204 ] } },
{ "type": "Feature", "properties": { "OBJECTID": 6967, "ILCE": "EYÜPSULTAN", "MAHALLE": "İSLAMBEY", "NAME": "EYÜPSULTAN BÜFE", "TOPLAM_YAP": "480", "TOPLAM_ISY": 154.0, "TOPLAM_KON": 2244.0, "TOPLAM_KIS": 7172.0 }, "geometry": { "type": "Point", "coordinates": [ 28.929170000429643, 41.049454000172013 ] } },
{ "type": "Feature", "properties": { "OBJECTID": 6968, "ILCE": "BAYRAMPAŞA", "MAHALLE": "KARTALTEPE", "NAME": "BAYRAMPAŞA KARTALTEPE BÜFE", "TOPLAM_YAP": "1027", "TOPLAM_ISY": 499.0, "TOPLAM_KON": 4201.0, "TOPLAM_KIS": 17700.0 }, "geometry": { "type": "Point", "coordinates": [ 28.898605000109026, 41.056632999755578 ] } },
{ "type": "Feature", "properties": { "OBJECTID": 6969, "ILCE": "EYÜPSULTAN", "MAHALLE": "YEŞİLPINAR", "NAME": "BÖLGE PARK BÜFE", "TOPLAM_YAP": "494", "TOPLAM_ISY": 348.0, "TOPLAM_KON": 1932.0, "TOPLAM_KIS": 10514.0 }, "geometry": { "type": "Point", "coordinates": [ 28.919465999521126, 41.081949999869778 ] } },
{ "type": "Feature", "properties": { "OBJECTID": 6970, "ILCE": "ESENLER", "MAHALLE": "KEMER", "NAME": "ESENLER KEMER BÜFE", "TOPLAM_YAP": "1256", "TOPLAM_ISY": 824.0, "TOPLAM_KON": 5872.0, "TOPLAM_KIS": 23399.0 }, "geometry": { "type": "Point", "coordinates": [ 28.879300000152689, 41.050295999596322 ] } },
{ "type": "Feature", "properties": { "OBJECTID": 6971, "ILCE": "FATİH", "MAHALLE": "KOCAMUSTAFAPAŞA", "NAME": "HALİÇ BÜFE", "TOPLAM_YAP": "776", "TOPLAM_ISY": 286.0, "TOPLAM_KON": 3159.0, "TOPLAM_KIS": 9897.0 }, "geometry": { "type": "Point", "coordinates": [ 28.955070999767468, 41.027609000200286 ] } },
{ "type": "Feature", "properties": { "OBJECTID": 6972, "ILCE": "FATİH", "MAHALLE": "HOCAPAŞA", "NAME": "SİRKECİ BÜFE", "TOPLAM_YAP": "68", "TOPLAM_ISY": 970.0, "TOPLAM_KON": 10.0, "TOPLAM_KIS": 196.0 }, "geometry": { "type": "Point", "coordinates": [ 28.976453999684569, 41.015670999879653 ] } },
{ "type": "Feature", "properties": { "OBJECTID": 6973, "ILCE": "G.O.PAŞA", "MAHALLE": "SARIGÖL", "NAME": "SARIGÖL 1 BÜFE", "TOPLAM_YAP": "591", "TOPLAM_ISY": 573.0, "TOPLAM_KON": 2912.0, "TOPLAM_KIS": 12910.0 }, "geometry": { "type": "Point", "coordinates": [ 28.916524000143745, 41.057642999786907 ] } },
{ "type": "Feature", "properties": { "OBJECTID": 6974, "ILCE": "G.O.PAŞA", "MAHALLE": "MERKEZ", "NAME": "GAZİOSMANPAŞA MEYDAN BÜFE", "TOPLAM_YAP": "490", "TOPLAM_ISY": 522.0, "TOPLAM_KON": 1806.0, "TOPLAM_KIS": 7824.0 }, "geometry": { "type": "Point", "coordinates": [ 28.912144999963115, 41.057971000083882 ] } },
{ "type": "Feature", "properties": { "OBJECTID": 6975, "ILCE": "G.O.PAŞA", "MAHALLE": "MERKEZ", "NAME": "YUSUF BÜFE", "TOPLAM_YAP": "593", "TOPLAM_ISY": 301.0, "TOPLAM_KON": 2401.0, "TOPLAM_KIS": 8849.0 }, "geometry": { "type": "Point", "coordinates": [ 28.90818600027794, 41.059325999743855 ] } },
{ "type": "Feature", "properties": { "OBJECTID": 6976, "ILCE": "ZEYTİNBURNU", "MAHALLE": "MERKEZEFENDİ", "NAME": "ZEYTİNBURNU BÜFE", "TOPLAM_YAP": "580", "TOPLAM_ISY": 48.0, "TOPLAM_KON": 2923.0, "TOPLAM_KIS": 14060.0 }, "geometry": { "type": "Point", "coordinates": [ 28.91329700053701, 41.011178999718759 ] } },
{ "type": "Feature", "properties": { "OBJECTID": 6977, "ILCE": "FATİH", "MAHALLE": "DERVİŞ ALİ", "NAME": "VEFA STAD BÜFE", "TOPLAM_YAP": "859", "TOPLAM_ISY": 405.0, "TOPLAM_KON": 4029.0, "TOPLAM_KIS": 12087.0 }, "geometry": { "type": "Point", "coordinates": [ 28.937706999538101, 41.028278000214002 ] } },
{ "type": "Feature", "properties": { "OBJECTID": 6978, "ILCE": "BAHÇELİEVLER", "MAHALLE": "BAHÇELİEVLER", "NAME": "KADİR HAS BÜFE", "TOPLAM_YAP": "91", "TOPLAM_ISY": 54.0, "TOPLAM_KON": 389.0, "TOPLAM_KIS": 2370.0 }, "geometry": { "type": "Point", "coordinates": [ 28.863846999635808, 40.995650000418998 ] } },
{ "type": "Feature", "properties": { "OBJECTID": 6979, "ILCE": "BAHÇELİEVLER", "MAHALLE": "KOCASİNAN", "NAME": "KOCASİNAN BÜFE", "TOPLAM_YAP": "863", "TOPLAM_ISY": 923.0, "TOPLAM_KON": 5068.0, "TOPLAM_KIS": 27676.0 }, "geometry": { "type": "Point", "coordinates": [ 28.841672999674241, 41.003731000427678 ] } },
{ "type": "Feature", "properties": { "OBJECTID": 7015, "ILCE": "BAYRAMPAŞA", "MAHALLE": "ORTA", "NAME": "BAYRAMPAŞA 1 BÜFE", "TOPLAM_YAP": "671", "TOPLAM_ISY": 713.0, "TOPLAM_KON": 2663.0, "TOPLAM_KIS": 9717.0 }, "geometry": { "type": "Point", "coordinates": [ 28.911591000287931, 41.034718999836514 ] } },
{ "type": "Feature", "properties": { "OBJECTID": 7016, "ILCE": "ESENLER", "MAHALLE": "FATİH", "NAME": "ESENLER FATİH BÜFE", "TOPLAM_YAP": "890", "TOPLAM_ISY": 719.0, "TOPLAM_KON": 5420.0, "TOPLAM_KIS": 23753.0 }, "geometry": { "type": "Point", "coordinates": [ 28.869365000033643, 41.039482000309896 ] } },
{ "type": "Feature", "properties": { "OBJECTID": 7017, "ILCE": "G.O.PAŞA", "MAHALLE": "KARLITEPE", "NAME": "PAZARİÇİ BÜFE", "TOPLAM_YAP": "882", "TOPLAM_ISY": 493.0, "TOPLAM_KON": 4382.0, "TOPLAM_KIS": 16086.0 }, "geometry": { "type": "Point", "coordinates": [ 28.93033900018888, 41.061081999622651 ] } },
{ "type": "Feature", "properties": { "OBJECTID": 7018, "ILCE": "GÜNGÖREN", "MAHALLE": "TOZKOPARAN", "NAME": "TOZKOPARAN BÜFE", "TOPLAM_YAP": "111", "TOPLAM_ISY": 4.0, "TOPLAM_KON": 36.0, "TOPLAM_KIS": 5421.0 }, "geometry": { "type": "Point", "coordinates": [ 28.896749999616215, 41.014978999978219 ] } },
{ "type": "Feature", "properties": { "OBJECTID": 7019, "ILCE": "FATİH", "MAHALLE": "DERVİŞ ALİ", "NAME": "DRAMAN BÜFE", "TOPLAM_YAP": "1553", "TOPLAM_ISY": 235.0, "TOPLAM_KON": 7434.0, "TOPLAM_KIS": 23583.0 }, "geometry": { "type": "Point", "coordinates": [ 28.944031000192936, 41.029044999913189 ] } },
{ "type": "Feature", "properties": { "OBJECTID": 7020, "ILCE": "EYÜPSULTAN", "MAHALLE": "RAMİ YENİ", "NAME": "TANTAVİ BÜFE", "TOPLAM_YAP": "679", "TOPLAM_ISY": 140.0, "TOPLAM_KON": 4030.0, "TOPLAM_KIS": 15959.0 }, "geometry": { "type": "Point", "coordinates": [ 28.918773999960802, 41.051447999639905 ] } },
{ "type": "Feature", "properties": { "OBJECTID": 7021, "ILCE": "ZEYTİNBURNU", "MAHALLE": "TELSİZ", "NAME": "TELSİZ 1 BÜFE", "TOPLAM_YAP": "1256", "TOPLAM_ISY": 485.0, "TOPLAM_KON": 6199.0, "TOPLAM_KIS": 23458.0 }, "geometry": { "type": "Point", "coordinates": [ 28.910125999712399, 41.000238000285051 ] } },
{ "type": "Feature", "properties": { "OBJECTID": 7022, "ILCE": "FATİH", "MAHALLE": "BALAT", "NAME": "MURAT MOLLA BÜFE", "TOPLAM_YAP": "1033", "TOPLAM_ISY": 119.0, "TOPLAM_KON": 4983.0, "TOPLAM_KIS": 15251.0 }, "geometry": { "type": "Point", "coordinates": [ 28.947355000458941, 41.027573999951926 ] } },
{ "type": "Feature", "properties": { "OBJECTID": 7023, "ILCE": "BAHÇELİEVLER", "MAHALLE": "ZAFER", "NAME": "UMUT BÜFE", "TOPLAM_YAP": "979", "TOPLAM_ISY": 997.0, "TOPLAM_KON": 4269.0, "TOPLAM_KIS": 24899.0 }, "geometry": { "type": "Point", "coordinates": [ 28.834771000438266, 41.003017999576159 ] } },
{ "type": "Feature", "properties": { "OBJECTID": 7024, "ILCE": "BAHÇELİEVLER", "MAHALLE": "ZAFER", "NAME": "MEVLANA 1 BÜFE", "TOPLAM_YAP": "1052", "TOPLAM_ISY": 657.0, "TOPLAM_KON": 5229.0, "TOPLAM_KIS": 31619.0 }, "geometry": { "type": "Point", "coordinates": [ 28.839224000018419, 41.010425000001192 ] } },
{ "type": "Feature", "properties": { "OBJECTID": 7025, "ILCE": "BEYOĞLU", "MAHALLE": "PİRİPAŞA", "NAME": "KALAYCIBAHÇE BÜFE", "TOPLAM_YAP": "1033", "TOPLAM_ISY": 351.0, "TOPLAM_KON": 3954.0, "TOPLAM_KIS": 15102.0 }, "geometry": { "type": "Point", "coordinates": [ 28.953103000110101, 41.045194000102526 ] } },
{ "type": "Feature", "properties": { "OBJECTID": 7026, "ILCE": "BEYKOZ", "MAHALLE": "YENİ MAHALLE", "NAME": "HEKİMBAŞI ÇİFTLİK BÜFE", "TOPLAM_YAP": "393", "TOPLAM_ISY": 41.0, "TOPLAM_KON": 359.0, "TOPLAM_KIS": 2587.0 }, "geometry": { "type": "Point", "coordinates": [ 29.081607999568703, 41.064980000193536 ] } },
{ "type": "Feature", "properties": { "OBJECTID": 7027, "ILCE": "ÇEKMEKÖY", "MAHALLE": "GÜNGÖREN", "NAME": "KIBRIS BÜFE", "TOPLAM_YAP": "259", "TOPLAM_ISY": 142.0, "TOPLAM_KON": 1344.0, "TOPLAM_KIS": 6624.0 }, "geometry": { "type": "Point", "coordinates": [ 29.222840999940004, 41.025740999637108 ] } },
{ "type": "Feature", "properties": { "OBJECTID": 7028, "ILCE": "FATİH", "MAHALLE": "HASEKİSULTAN", "NAME": "HASEKİ BÜFE", "TOPLAM_YAP": "867", "TOPLAM_ISY": 903.0, "TOPLAM_KON": 5323.0, "TOPLAM_KIS": 12286.0 }, "geometry": { "type": "Point", "coordinates": [ 28.939660000461153, 41.011804999813592 ] } },
{ "type": "Feature", "properties": { "OBJECTID": 7029, "ILCE": "ESENLER", "MAHALLE": "TUNA", "NAME": "KARABAYIR BÜFE", "TOPLAM_YAP": "1205", "TOPLAM_ISY": 670.0, "TOPLAM_KON": 5406.0, "TOPLAM_KIS": 23222.0 }, "geometry": { "type": "Point", "coordinates": [ 28.861369000125872, 41.048323000418797 ] } },
{ "type": "Feature", "properties": { "OBJECTID": 7030, "ILCE": "BAYRAMPAŞA", "MAHALLE": "TERAZİDERE", "NAME": "TERAZİDERE BÜFE", "TOPLAM_YAP": "682", "TOPLAM_ISY": 560.0, "TOPLAM_KON": 3020.0, "TOPLAM_KIS": 11011.0 }, "geometry": { "type": "Point", "coordinates": [ 28.898040999538487, 41.030955000173371 ] } },
{ "type": "Feature", "properties": { "OBJECTID": 7031, "ILCE": "BAYRAMPAŞA", "MAHALLE": "YILDIRIM", "NAME": "YILDIRIM PARK BÜFE", "TOPLAM_YAP": "1412", "TOPLAM_ISY": 1043.0, "TOPLAM_KON": 5841.0, "TOPLAM_KIS": 20862.0 }, "geometry": { "type": "Point", "coordinates": [ 28.893816000442801, 41.065403999763113 ] } },
{ "type": "Feature", "properties": { "OBJECTID": 7032, "ILCE": "G.O.PAŞA", "MAHALLE": "KARAYOLLARI", "NAME": "KARAYOLLARI 1 BÜFE", "TOPLAM_YAP": "772", "TOPLAM_ISY": 356.0, "TOPLAM_KON": 3575.0, "TOPLAM_KIS": 15228.0 }, "geometry": { "type": "Point", "coordinates": [ 28.89840500028782, 41.08541999957292 ] } },
{ "type": "Feature", "properties": { "OBJECTID": 7033, "ILCE": "ŞİŞLİ", "MAHALLE": "MECİDİYEKÖY", "NAME": "MECİDİYEKÖY BÜFE", "TOPLAM_YAP": "140", "TOPLAM_ISY": 1123.0, "TOPLAM_KON": 949.0, "TOPLAM_KIS": 2000.0 }, "geometry": { "type": "Point", "coordinates": [ 28.996074999433116, 41.066402000254307 ] } },
{ "type": "Feature", "properties": { "OBJECTID": 7034, "ILCE": "G.O.PAŞA", "MAHALLE": "BAĞLARBAŞI", "NAME": "BAĞLAR BÜFE", "TOPLAM_YAP": "955", "TOPLAM_ISY": 674.0, "TOPLAM_KON": 5195.0, "TOPLAM_KIS": 17533.0 }, "geometry": { "type": "Point", "coordinates": [ 28.914085999993951, 41.062283000369327 ] } },
{ "type": "Feature", "properties": { "OBJECTID": 7035, "ILCE": "ŞİŞLİ", "MAHALLE": "FERİKÖY", "NAME": "FERİKÖY İSKİ BÜFE", "TOPLAM_YAP": "725", "TOPLAM_ISY": 364.0, "TOPLAM_KON": 4085.0, "TOPLAM_KIS": 12232.0 }, "geometry": { "type": "Point", "coordinates": [ 28.976425000386225, 41.051647999960373 ] } },
{ "type": "Feature", "properties": { "OBJECTID": 7036, "ILCE": "ATAŞEHİR", "MAHALLE": "ESATPAŞA", "NAME": "ESATPAŞA BÜFE", "TOPLAM_YAP": "639", "TOPLAM_ISY": 157.0, "TOPLAM_KON": 1507.0, "TOPLAM_KIS": 9667.0 }, "geometry": { "type": "Point", "coordinates": [ 29.085232000519841, 41.002994000220639 ] } },
{ "type": "Feature", "properties": { "OBJECTID": 7037, "ILCE": "ÜSKÜDAR", "MAHALLE": "KISIKLI", "NAME": "FERAH BÜFE", "TOPLAM_YAP": "580", "TOPLAM_ISY": 0.0, "TOPLAM_KON": 0.0, "TOPLAM_KIS": 10976.0 }, "geometry": { "type": "Point", "coordinates": [ 29.074755000016292, 41.026317999727382 ] } },
{ "type": "Feature", "properties": { "OBJECTID": 7038, "ILCE": "SULTANBEYLİ", "MAHALLE": "ADİL", "NAME": "SULTANBEYLİ PELİT BÜFE", "TOPLAM_YAP": "418", "TOPLAM_ISY": 116.0, "TOPLAM_KON": 784.0, "TOPLAM_KIS": 8468.0 }, "geometry": { "type": "Point", "coordinates": [ 29.261835000494116, 40.982261000379964 ] } },
{ "type": "Feature", "properties": { "OBJECTID": 7039, "ILCE": "BEYKOZ", "MAHALLE": "RÜZGARLIBAHÇE", "NAME": "RÜZGARLIBAHÇE BÜFE", "TOPLAM_YAP": "370", "TOPLAM_ISY": 129.0, "TOPLAM_KON": 562.0, "TOPLAM_KIS": 2379.0 }, "geometry": { "type": "Point", "coordinates": [ 29.10087000005533, 41.094621000190585 ] } },
{ "type": "Feature", "properties": { "OBJECTID": 7040, "ILCE": "KARTAL", "MAHALLE": "ESENTEPE", "NAME": "KARTAL ESENTEPE BÜFE", "TOPLAM_YAP": "413", "TOPLAM_ISY": 200.0, "TOPLAM_KON": 2107.0, "TOPLAM_KIS": 9848.0 }, "geometry": { "type": "Point", "coordinates": [ 29.190608999498153, 40.901367999631617 ] } },
{ "type": "Feature", "properties": { "OBJECTID": 7041, "ILCE": "MALTEPE", "MAHALLE": "CEVİZLİ", "NAME": "MALTEPE KORUMA BÜFE", "TOPLAM_YAP": "207", "TOPLAM_ISY": 389.0, "TOPLAM_KON": 1558.0, "TOPLAM_KIS": 6916.0 }, "geometry": { "type": "Point", "coordinates": [ 29.144254000534303, 40.917456000453811 ] } },
{ "type": "Feature", "properties": { "OBJECTID": 7042, "ILCE": "PENDİK", "MAHALLE": "FEVZİÇAKMAK", "NAME": "ÜST KAYNARCA BÜFE", "TOPLAM_YAP": "658", "TOPLAM_ISY": 949.0, "TOPLAM_KON": 3727.0, "TOPLAM_KIS": 13898.0 }, "geometry": { "type": "Point", "coordinates": [ 29.266729999662168, 40.878494999683205 ] } },
{ "type": "Feature", "properties": { "OBJECTID": 7043, "ILCE": "KARTAL", "MAHALLE": "YAKACIK ÇARŞI", "NAME": "YAKACIK BÜFE", "TOPLAM_YAP": "276", "TOPLAM_ISY": 167.0, "TOPLAM_KON": 1291.0, "TOPLAM_KIS": 5783.0 }, "geometry": { "type": "Point", "coordinates": [ 29.225038999660995, 40.918988999573656 ] } },
{ "type": "Feature", "properties": { "OBJECTID": 7044, "ILCE": "KÜÇÜKÇEKMECE", "MAHALLE": "İSTASYON", "NAME": null, "TOPLAM_YAP": null, "TOPLAM_ISY": null, "TOPLAM_KON": null, "TOPLAM_KIS": null }, "geometry": { "type": "Point", "coordinates": [ 28.772509270592039, 41.026177359658433 ] } },
{ "type": "Feature", "properties": { "OBJECTID": 7045, "ILCE": "BÜYÜKÇEKMECE", "MAHALLE": "MURATÇEŞME", "NAME": null, "TOPLAM_YAP": null, "TOPLAM_ISY": null, "TOPLAM_KON": null, "TOPLAM_KIS": null }, "geometry": { "type": "Point", "coordinates": [ 28.537850000551384, 41.023409999704711 ] } },
{ "type": "Feature", "properties": { "OBJECTID": 7046, "ILCE": "MALTEPE", "MAHALLE": "İDEALTEPE", "NAME": null, "TOPLAM_YAP": null, "TOPLAM_ISY": null, "TOPLAM_KON": null, "TOPLAM_KIS": null }, "geometry": { "type": "Point", "coordinates": [ 29.116833000119389, 40.940568999860794 ] } },
{ "type": "Feature", "properties": { "OBJECTID": 7047, "ILCE": "TUZLA", "MAHALLE": "AYDINLI", "NAME": null, "TOPLAM_YAP": null, "TOPLAM_ISY": null, "TOPLAM_KON": null, "TOPLAM_KIS": null }, "geometry": { "type": "Point", "coordinates": [ 29.327816000159498, 40.864629000449092 ] } },
{ "type": "Feature", "properties": { "OBJECTID": 7048, "ILCE": "ŞİŞLİ", "MAHALLE": "MERKEZ", "NAME": null, "TOPLAM_YAP": null, "TOPLAM_ISY": null, "TOPLAM_KON": null, "TOPLAM_KIS": null }, "geometry": { "type": "Point", "coordinates": [ 28.977770999615814, 41.045073000248728 ] } },
{ "type": "Feature", "properties": { "OBJECTID": 7049, "ILCE": "BAHÇELİEVLER", "MAHALLE": "BAHÇELİEVLER", "NAME": null, "TOPLAM_YAP": null, "TOPLAM_ISY": null, "TOPLAM_KON": null, "TOPLAM_KIS": null }, "geometry": { "type": "Point", "coordinates": [ 28.870397000284051, 41.006236999657645 ] } },
{ "type": "Feature", "properties": { "OBJECTID": 7014, "ILCE": "MALTEPE", "MAHALLE": "FEYZULLAH", "NAME": "MALTEPE PARK BÜFE", "TOPLAM_YAP": "394", "TOPLAM_ISY": 1043.0, "TOPLAM_KON": 2690.0, "TOPLAM_KIS": 7584.0 }, "geometry": { "type": "Point", "coordinates": [ 29.129915999885188, 40.925454999615745 ] } },
{ "type": "Feature", "properties": { "OBJECTID": 6838, "ILCE": "BAŞAKŞEHİR", "MAHALLE": "ZİYA GÖKALP", "NAME": "AYAZMA BÜFE", "TOPLAM_YAP": "64", "TOPLAM_ISY": 24.0, "TOPLAM_KON": 389.0, "TOPLAM_KIS": 1658.0 }, "geometry": { "type": "Point", "coordinates": [ 28.779442000552397, 41.077338000309155 ] } },
{ "type": "Feature", "properties": { "OBJECTID": 6839, "ILCE": "SANCAKTEPE", "MAHALLE": "VEYSEL KARANİ", "NAME": "OSMANGAZİ BÜFE", "TOPLAM_YAP": "227", "TOPLAM_ISY": 207.0, "TOPLAM_KON": 804.0, "TOPLAM_KIS": 3615.0 }, "geometry": { "type": "Point", "coordinates": [ 29.247995000308251, 40.972205999676028 ] } },
{ "type": "Feature", "properties": { "OBJECTID": 6840, "ILCE": "BEYOĞLU", "MAHALLE": "CİHANGİR", "NAME": "TAKSİM HASTANE BÜFE", "TOPLAM_YAP": "1054", "TOPLAM_ISY": 1734.0, "TOPLAM_KON": 5478.0, "TOPLAM_KIS": 7848.0 }, "geometry": { "type": "Point", "coordinates": [ 28.983564999413332, 41.032796999932202 ] } },
{ "type": "Feature", "properties": { "OBJECTID": 6841, "ILCE": "KADIKÖY", "MAHALLE": "HASANPAŞA", "NAME": "KADIKÖY SÖĞÜTLÜÇEŞME BÜFE", "TOPLAM_YAP": "575", "TOPLAM_ISY": 1876.0, "TOPLAM_KON": 2425.0, "TOPLAM_KIS": 4757.0 }, "geometry": { "type": "Point", "coordinates": [ 29.033115999781081, 40.991922999995808 ] } },
{ "type": "Feature", "properties": { "OBJECTID": 6842, "ILCE": "EYÜPSULTAN", "MAHALLE": "NİŞANCA", "NAME": "NİŞANCA 2 BÜFE", "TOPLAM_YAP": "556", "TOPLAM_ISY": 139.0, "TOPLAM_KON": 1828.0, "TOPLAM_KIS": 5777.0 }, "geometry": { "type": "Point", "coordinates": [ 28.93057600018556, 41.038629999602492 ] } },
{ "type": "Feature", "properties": { "OBJECTID": 6843, "ILCE": "BAĞCILAR", "MAHALLE": "HÜRRİYET", "NAME": "HÜRRİYET BÜFE", "TOPLAM_YAP": "842", "TOPLAM_ISY": 67.0, "TOPLAM_KON": 3148.0, "TOPLAM_KIS": 15059.0 }, "geometry": { "type": "Point", "coordinates": [ 28.830338999723303, 41.02457000007287 ] } },
{ "type": "Feature", "properties": { "OBJECTID": 6844, "ILCE": "BAĞCILAR", "MAHALLE": "SANCAKTEPE", "NAME": "BAĞCILAR BÜFE", "TOPLAM_YAP": "184", "TOPLAM_ISY": 39.0, "TOPLAM_KON": 878.0, "TOPLAM_KIS": 6962.0 }, "geometry": { "type": "Point", "coordinates": [ 28.854400999475359, 41.035512999551514 ] } },
{ "type": "Feature", "properties": { "OBJECTID": 6845, "ILCE": "BAĞCILAR", "MAHALLE": "BARBAROS", "NAME": "MEDİCİNE HASTANESİ BÜFE", "TOPLAM_YAP": "1109", "TOPLAM_ISY": 69.0, "TOPLAM_KON": 3911.0, "TOPLAM_KIS": 21296.0 }, "geometry": { "type": "Point", "coordinates": [ 28.839260000447613, 41.030505000286979 ] } },
{ "type": "Feature", "properties": { "OBJECTID": 6846, "ILCE": "ATAŞEHİR", "MAHALLE": "FERHATPAŞA", "NAME": "FERHATPAŞA BÜFE", "TOPLAM_YAP": "166", "TOPLAM_ISY": 223.0, "TOPLAM_KON": 938.0, "TOPLAM_KIS": 3062.0 }, "geometry": { "type": "Point", "coordinates": [ 29.173116999732542, 40.982823999685543 ] } },
{ "type": "Feature", "properties": { "OBJECTID": 6847, "ILCE": "ESENYURT", "MAHALLE": "ESENKENT", "NAME": "ESENKENT 2 BÜFE", "TOPLAM_YAP": "79", "TOPLAM_ISY": 14.0, "TOPLAM_KON": 495.0, "TOPLAM_KIS": 7074.0 }, "geometry": { "type": "Point", "coordinates": [ 28.671786999806045, 41.062316999744866 ] } },
{ "type": "Feature", "properties": { "OBJECTID": 6848, "ILCE": "ÜMRANİYE", "MAHALLE": "MEHMET AKİF", "NAME": "ASYA BÜFE", "TOPLAM_YAP": "219", "TOPLAM_ISY": 146.0, "TOPLAM_KON": 1728.0, "TOPLAM_KIS": 7776.0 }, "geometry": { "type": "Point", "coordinates": [ 29.138487999587024, 41.008507000124119 ] } },
{ "type": "Feature", "properties": { "OBJECTID": 6849, "ILCE": "ÜMRANİYE", "MAHALLE": "PARSELLER", "NAME": "CEMİL MERİÇ BÜFE", "TOPLAM_YAP": "703", "TOPLAM_ISY": 101.0, "TOPLAM_KON": 1668.0, "TOPLAM_KIS": 6411.0 }, "geometry": { "type": "Point", "coordinates": [ 29.148600000424665, 41.027648000086096 ] } },
{ "type": "Feature", "properties": { "OBJECTID": 6850, "ILCE": "MALTEPE", "MAHALLE": "ALTINTEPE", "NAME": "ALTINTEPE BÜFE", "TOPLAM_YAP": "416", "TOPLAM_ISY": 250.0, "TOPLAM_KON": 4217.0, "TOPLAM_KIS": 13007.0 }, "geometry": { "type": "Point", "coordinates": [ 29.105528999931028, 40.954772000235216 ] } },
{ "type": "Feature", "properties": { "OBJECTID": 6851, "ILCE": "ÜMRANİYE", "MAHALLE": "IHLAMURKUYU", "NAME": "BAYRAKTAR BÜFE", "TOPLAM_YAP": "853", "TOPLAM_ISY": 159.0, "TOPLAM_KON": 1905.0, "TOPLAM_KIS": 6569.0 }, "geometry": { "type": "Point", "coordinates": [ 29.1404590000522, 41.023403000117256 ] } },
{ "type": "Feature", "properties": { "OBJECTID": 6852, "ILCE": "KÜÇÜKÇEKMECE", "MAHALLE": "TEVFİKBEY", "NAME": "TEVFİKBEY 1 BÜFE", "TOPLAM_YAP": "562", "TOPLAM_ISY": 352.0, "TOPLAM_KON": 3566.0, "TOPLAM_KIS": 13219.0 }, "geometry": { "type": "Point", "coordinates": [ 28.802237999765438, 41.01182100028052 ] } },
{ "type": "Feature", "properties": { "OBJECTID": 6853, "ILCE": "EYÜPSULTAN", "MAHALLE": "TOPÇULAR", "NAME": "TOPÇULAR BÜFE", "TOPLAM_YAP": "386", "TOPLAM_ISY": 136.0, "TOPLAM_KON": 1856.0, "TOPLAM_KIS": 6263.0 }, "geometry": { "type": "Point", "coordinates": [ 28.922307000042085, 41.043805000135499 ] } },
{ "type": "Feature", "properties": { "OBJECTID": 6854, "ILCE": "EYÜPSULTAN", "MAHALLE": "GÜZELTEPE", "NAME": "GÜZELTEPE MEYDAN BÜFE", "TOPLAM_YAP": "161", "TOPLAM_ISY": 50.0, "TOPLAM_KON": 478.0, "TOPLAM_KIS": 2715.0 }, "geometry": { "type": "Point", "coordinates": [ 28.956171000495605, 41.072792000021181 ] } },
{ "type": "Feature", "properties": { "OBJECTID": 6855, "ILCE": "EYÜPSULTAN", "MAHALLE": "GÜZELTEPE", "NAME": "GÜZELTEPE BÜFE", "TOPLAM_YAP": "398", "TOPLAM_ISY": 50.0, "TOPLAM_KON": 1316.0, "TOPLAM_KIS": 9490.0 }, "geometry": { "type": "Point", "coordinates": [ 28.956999999701729, 41.077999999953072 ] } },
{ "type": "Feature", "properties": { "OBJECTID": 6856, "ILCE": "ÜSKÜDAR", "MAHALLE": "ÜNALAN", "NAME": "ÜNALAN 2 BÜFE", "TOPLAM_YAP": "363", "TOPLAM_ISY": 0.0, "TOPLAM_KON": 0.0, "TOPLAM_KIS": 5223.0 }, "geometry": { "type": "Point", "coordinates": [ 29.065701999519622, 40.997268000319387 ] } },
{ "type": "Feature", "properties": { "OBJECTID": 6857, "ILCE": "SULTANBEYLİ", "MAHALLE": "TURGUTREİS", "NAME": "TURGUT REİS BÜFE", "TOPLAM_YAP": "271", "TOPLAM_ISY": 226.0, "TOPLAM_KON": 1080.0, "TOPLAM_KIS": 4542.0 }, "geometry": { "type": "Point", "coordinates": [ 29.277162999499726, 40.964853999559338 ] } },
{ "type": "Feature", "properties": { "OBJECTID": 6858, "ILCE": "ARNAVUTKÖY", "MAHALLE": "MERKEZ", "NAME": "AVLU 34 AVM BÜFE", "TOPLAM_YAP": "376", "TOPLAM_ISY": 235.0, "TOPLAM_KON": 1497.0, "TOPLAM_KIS": 7869.0 }, "geometry": { "type": "Point", "coordinates": [ 28.735723000536836, 41.184027999887114 ] } },
{ "type": "Feature", "properties": { "OBJECTID": 6859, "ILCE": "ESENLER", "MAHALLE": "YAVUZSELİM", "NAME": "ESENLER KARTAL BÜFE", "TOPLAM_YAP": "509", "TOPLAM_ISY": 583.0, "TOPLAM_KON": 3514.0, "TOPLAM_KIS": 15007.0 }, "geometry": { "type": "Point", "coordinates": [ 28.884147999562789, 41.039579000063746 ] } },
{ "type": "Feature", "properties": { "OBJECTID": 6860, "ILCE": "KÜÇÜKÇEKMECE", "MAHALLE": "İNÖNÜ", "NAME": "İNÖNÜ 3 BÜFE", "TOPLAM_YAP": "661", "TOPLAM_ISY": 172.0, "TOPLAM_KON": 3290.0, "TOPLAM_KIS": 12708.0 }, "geometry": { "type": "Point", "coordinates": [ 28.803066000316232, 41.017639999662329 ] } },
{ "type": "Feature", "properties": { "OBJECTID": 6861, "ILCE": "ATAŞEHİR", "MAHALLE": "MUSTAFA KEMAL", "NAME": "MUSTAFA KEMAL BÜFE", "TOPLAM_YAP": "986", "TOPLAM_ISY": 388.0, "TOPLAM_KON": 3038.0, "TOPLAM_KIS": 10299.0 }, "geometry": { "type": "Point", "coordinates": [ 29.09329199974658, 41.003549999978027 ] } },
{ "type": "Feature", "properties": { "OBJECTID": 6862, "ILCE": "BEYLİKDÜZÜ", "MAHALLE": "ADNAN KAHVECİ", "NAME": "ADNAN KAHVECİ 4 BÜFE", "TOPLAM_YAP": "74", "TOPLAM_ISY": 0.0, "TOPLAM_KON": 347.0, "TOPLAM_KIS": 4058.0 },